"","id","name","city","latitude","longitude","dpcapacity","online_date","X","n_of_trips_from","n_of_trips_to","avg_trip_duration","avg_age","perc_male","perc_subs"
"1",2,"Buckingham Fountain","Chicago",41.876393,-87.620328,27,"6/10/2013 10:43",NA,357,278,139.054808590103,35.6296296296296,0.722222222222222,0.151260504201681
"2",3,"Shedd Aquarium","Chicago",41.86722596,-87.61535539,55,"6/10/2013 10:44",NA,1795,1396,115.569442896936,37.5771324863883,0.644283121597096,0.304735376044568
"3",4,"Burnham Harbor","Chicago",41.856268,-87.613348,23,"6/10/2013 10:46",NA,545,536,106.507339449541,38.6337662337662,0.778645833333333,0.706422018348624
"4",5,"State St & Harrison St","Chicago",41.874053,-87.627716,23,"6/10/2013 10:46",NA,794,1004,181.58755247691,39.7570850202428,0.797570850202429,0.933249370277078
"5",6,"Dusable Harbor","Chicago",41.885041,-87.612794,39,"6/10/2013 11:18",NA,791,502,129.117067003793,38.7849056603773,0.649056603773585,0.335018963337547
"6",7,"Field Blvd & South Water St","Chicago",41.88634906,-87.61751655,19,"6/19/2013 10:00",NA,801,820,188.438056595922,38.803840877915,0.891632373113855,0.910112359550562
"7",9,"Leavitt St & Archer Ave","Chicago",41.82879202,-87.68060446,19,"6/21/2013 9:33",NA,100,86,62.9056666666667,47.6938775510205,0.275510204081633,0.98
"8",11,"Jeffery Blvd & 71st St","Chicago",41.76663824,-87.57645011,11,"6/21/2013 9:39",NA,45,45,196.623333333333,43.4222222222222,0.2,1
"9",12,"South Shore Dr & 71st St","Chicago",41.76640946,-87.56568757,15,"6/21/2013 10:00",NA,32,33,132.086458333333,37.2758620689656,0.724137931034483,0.90625
"10",13,"Wilton Ave & Diversey Pkwy","Chicago",41.932418,-87.652705,27,"6/22/2013 18:29",NA,1360,1337,152.151666666667,33.0052631578947,0.829947328818661,0.977941176470588
"11",14,"Morgan St & 18th St","Chicago",41.858086,-87.651073,15,"6/22/2013 18:33",NA,506,612,181.574934123847,34.8275862068965,0.811359026369168,0.974308300395257
"12",15,"Racine Ave & 18th St","Chicago",41.858166,-87.656495,15,"6/22/2013 18:35",NA,575,594,172.989884057971,33.361510791367,0.827338129496403,0.965217391304348
"13",16,"Paulina Ave & North Ave","Chicago",41.910337,-87.670072,15,"6/22/2013 18:55",NA,705,659,142.618156028369,32.8982558139535,0.710755813953488,0.975886524822695
"14",17,"Honore St & Division St","Chicago",41.903119,-87.673935,23,"6/22/2013 18:58",NA,821,810,158.100812017864,32.1794228356337,0.754077791718946,0.970767356881851
"15",18,"Wacker Dr & Washington St","Chicago",41.883132,-87.637321,19,"6/22/2013 19:00",NA,2985,2695,179.898442211055,40.7893124574541,0.870660313138189,0.98391959798995
"16",19,"Loomis St & Taylor St (*)","Chicago",41.869417,-87.660996,16,"6/22/2013 19:03",NA,1157,1088,177.698012100259,29.3275261324043,0.785714285714286,0.992221261884183
"17",20,"Sheffield Ave & Kingsbury St","Chicago",41.910522,-87.653106,15,"6/22/2013 19:04",NA,997,1076,184.102474088933,34.7868020304568,0.753048780487805,0.987963891675025
"18",21,"Aberdeen St & Jackson Blvd","Chicago",41.87772613,-87.65478743,15,"6/22/2013 19:07",NA,1426,1290,183.973094904161,38.8154289834174,0.837662337662338,0.96984572230014
"19",22,"May St & Taylor St","Chicago",41.8694821,-87.6554864,15,"6/22/2013 19:09",NA,990,994,166.414545454545,29.6296296296296,0.87962962962963,0.981818181818182
"20",23,"Orleans St & Elm St (*)","Chicago",41.902924,-87.637715,16,"6/22/2013 20:20",NA,516,505,203.259593023256,33.23046875,0.826171875,0.992248062015504
"21",24,"Fairbanks Ct & Grand Ave","Chicago",41.89186,-87.62062,15,"6/22/2013 20:23",NA,2271,2347,178.052084250697,36.1207892204043,0.807211538461538,0.914575077058565
"22",25,"Michigan Ave & Pearson St","Chicago",41.89766,-87.62351,23,"6/22/2013 20:26",NA,857,966,164.603850641774,39.1205357142858,0.78125,0.784130688448075
"23",26,"McClurg Ct & Illinois St","Chicago",41.890359,-87.617532,31,"6/22/2013 20:28",NA,1979,2027,198.950859019707,37.216201423098,0.782703886152162,0.922688226376958
"24",27,"Larrabee St & North Ave","Chicago",41.91021,-87.6435,19,"6/22/2013 20:31",NA,451,454,182.911751662971,36.1316964285713,0.765625,0.993348115299335
"25",28,"Larrabee St & Menomonee St","Chicago",41.91468,-87.64332,15,"6/22/2013 20:38",NA,603,587,166.270646766169,35.0118043844857,0.743676222596965,0.983416252072968
"26",29,"Noble St & Milwaukee Ave","Chicago",41.90068,-87.6626,15,"6/22/2013 20:52",NA,815,704,189.542188139059,32.9079445145019,0.828499369482976,0.971779141104295
"27",30,"Ashland Ave & Augusta Blvd","Chicago",41.899643,-87.6677,15,"6/22/2013 20:54",NA,655,639,200.128244274809,32.5593220338983,0.793528505392912,0.990839694656489
"28",31,"Franklin St & Chicago Ave","Chicago",41.896776,-87.635633,23,"6/22/2013 20:58",NA,2027,1869,179.203658937675,36.572942958102,0.823826350328117,0.976813024173656
"29",32,"Racine Ave & Congress Pkwy","Chicago",41.87464,-87.65703,19,"6/22/2013 21:00",NA,935,955,180.593582887701,35.3018458197612,0.803474484256243,0.985026737967914
"30",33,"State St & Van Buren St","Chicago",41.877181,-87.627844,27,"6/22/2013 21:06",NA,1576,1492,177.162330795262,42.7574355584932,0.849106551952349,0.96002538071066
"31",34,"Cannon Dr & Fullerton Ave","Chicago",41.92675599,-87.63442878,15,"6/22/2013 21:09",NA,263,310,129.100443599493,39.0114942528735,0.729885057471264,0.661596958174905
"32",35,"Streeter Dr & Grand Ave","Chicago",41.892278,-87.612043,47,"6/22/2013 21:12",NA,2423,3092,120.884413261797,39.0067720090294,0.758465011286682,0.364424267437061
"33",36,"Franklin St & Jackson Blvd","Chicago",41.87770796,-87.63532114,39,"6/24/2013 23:34",NA,2958,2892,177.091677935542,40.7416897506926,0.861149584487535,0.976335361730899
"34",37,"Dearborn St & Adams St","Chicago",41.87935636,-87.62979104,19,"6/25/2013 1:12",NA,1918,1935,175.036001042753,41.4882062534284,0.809105869445968,0.950469238790407
"35",38,"Clark St & Lake St","Chicago",41.88602083,-87.63087606,27,"6/25/2013 1:43",NA,2691,2141,177.483562492258,37.5763755290495,0.879091259145168,0.965440356744705
"36",39,"Wabash Ave & Adams St","Chicago",41.87947235,-87.62568861,23,"6/25/2013 1:44",NA,1899,1794,178.935825873267,41.9879584017515,0.917853231106243,0.961558715113217
"37",40,"LaSalle St & Adams St","Chicago",41.87934437,-87.63198522,15,"6/25/2013 1:44",NA,1075,1067,177.952930232558,40.9493041749504,0.896517412935323,0.934883720930233
"38",41,"Federal St & Polk St","Chicago",41.87207763,-87.62954377,19,"6/25/2013 1:44",NA,1527,1594,190.407454704213,36.9506089309878,0.734776725304465,0.967910936476752
"39",42,"Wabash Ave & Cermak Rd","Chicago",41.852619,-87.626488,11,"6/25/2013 7:38",NA,254,240,172.696981627297,39.1239316239316,0.8068669527897,0.921259842519685
"40",43,"Michigan Ave & Washington St","Chicago",41.88389277,-87.62464914,43,"6/25/2013 10:57",NA,4279,4625,197.12752590169,40.680856487382,0.891464968152866,0.91680299135312
"41",44,"State St & Randolph St","Chicago",41.8847302,-87.62773357,27,"6/25/2013 10:59",NA,2707,2482,178.299415096663,38.5780640124901,0.783287778211636,0.946065755448836
"42",45,"Michigan Ave & Congress Pkwy","Chicago",41.876243,-87.624426,15,"6/25/2013 11:01",NA,846,768,182.214676910954,45.2641770401106,0.789764868603043,0.854609929078014
"43",46,"Wells St & Walton St","Chicago",41.89993001,-87.63443007,19,"6/25/2013 11:03",NA,775,674,195.221032258065,36.8512064343163,0.668900804289544,0.96258064516129
"44",47,"State St & Kinzie St","Chicago",41.889187,-87.627754,31,"6/25/2013 11:04",NA,2227,2432,186.505388414908,40.5336154207805,0.829337094499295,0.954647507858105
"45",48,"Larrabee St & Kingsbury St","Chicago",41.897764,-87.642884,39,"6/25/2013 11:20",NA,3671,3458,197.233315172977,35.1249312052835,0.832140891579527,0.989921002451648
"46",49,"Dearborn St & Monroe St","Chicago",41.88131982,-87.62952092,39,"6/25/2013 11:21",NA,3490,3283,169.831504297994,40.8995019044828,0.835777126099707,0.977650429799427
"47",50,"Clark St & Congress Pkwy","Chicago",41.87593267,-87.63058454,27,"6/25/2013 11:23",NA,1703,1765,200.084674104521,43.315288518739,0.913146936347412,0.987081620669407
"48",51,"Clark St & Randolph St","Chicago",41.88457623,-87.63188991,39,"6/25/2013 11:24",NA,2749,2759,175.194579847217,39.4008233532934,0.880239520958084,0.971989814477992
"49",52,"Michigan Ave & Lake St","Chicago",41.886024,-87.624117,31,"6/25/2013 11:25",NA,2851,2865,188.561113059745,41.4768764215314,0.830675778283979,0.924587863907401
"50",53,"LaSalle (Wells) St & Huron St","Chicago",41.894882,-87.632326,27,"6/25/2013 11:27",NA,1815,1644,184.445693296602,36.5240549828179,0.832664756446991,0.960881542699724
"51",54,"Ogden Ave & Chicago Ave","Chicago",41.89636246,-87.65406127,19,"6/25/2013 11:28",NA,866,886,195.055696689761,36.25,0.838862559241706,0.97459584295612
"52",55,"Halsted St & Roosevelt Rd","Chicago",41.867324,-87.648625,23,"6/25/2013 11:33",NA,554,659,194.814560770156,30.2090395480227,0.819209039548023,0.958483754512635
"53",56,"Desplaines St & Kinzie St","Chicago",41.88871604,-87.64444785,27,"6/25/2013 11:50",NA,2368,2111,174.485543355856,34.9637149028079,0.813500649069667,0.977195945945946
"54",57,"Clinton St & Roosevelt Rd","Chicago",41.86711778,-87.64108796,15,"6/25/2013 11:54",NA,601,713,195.349750415973,37.6354166666667,0.808695652173913,0.956738768718802
"55",58,"Marshfield Ave & Cortland St","Chicago",41.916017,-87.668879,23,"6/25/2013 11:57",NA,1825,1757,197.454392694064,37.6632939853851,0.806070826306914,0.974794520547945
"56",59,"Wabash Ave & Roosevelt Rd","Chicago",41.867227,-87.625961,23,"6/25/2013 12:06",NA,2522,2844,173.884575733545,36.5748031496064,0.779113137173643,0.956780333068993
"57",60,"Dayton St & North Ave","Chicago",41.91057803,-87.64942193,19,"6/25/2013 12:08",NA,1030,1091,172.56213592233,35.4843276036399,0.817997977755308,0.960194174757282
"58",61,"Wood St & Milwaukee Ave","Chicago",41.907655,-87.672552,19,"6/25/2013 12:09",NA,956,1017,151.849912831241,32.7280701754387,0.74780701754386,0.95397489539749
"59",62,"McCormick Place","Chicago",41.85137517,-87.61883465,27,"6/25/2013 12:13",NA,385,374,135.6570995671,44.4155844155844,0.735930735930736,0.597402597402597
"60",66,"Clinton St & Lake St","Chicago",41.885637,-87.641823,23,"6/25/2013 12:21",NA,3507,3886,187.446007984032,37.5314037626629,0.821128798842258,0.98517251211862
"61",67,"Sheffield Ave & Fullerton Ave","Chicago",41.92560188,-87.65370804,19,"6/25/2013 12:23",NA,1986,1870,156.05110775428,35.0216830149716,0.815599173553719,0.975327291037261
"62",68,"Clinton St & Tilden St","Chicago",41.875885,-87.640795,23,"6/25/2013 12:52",NA,973,918,168.420058239123,37.630705394191,0.774896265560166,0.990750256937307
"63",69,"Damen Ave & Pierce Ave","Chicago",41.90939601,-87.67769193,19,"6/25/2013 12:53",NA,1848,1863,144.652182539683,33.8177727784027,0.796839729119639,0.961580086580087
"64",71,"Morgan St & Lake St","Chicago",41.88548331,-87.65230486,23,"6/25/2013 12:55",NA,2692,2850,176.984893511639,38.4087786259543,0.885408708938121,0.972139673105498
"65",72,"Wabash Ave & 16th St","Chicago",41.860384,-87.625813,39,"6/25/2013 12:56",NA,1104,1263,188.059767512077,38.7028518859245,0.820607175712971,0.983695652173913
"66",73,"Jefferson St & Monroe St","Chicago",41.880422,-87.642746,19,"6/25/2013 13:08",NA,1131,1178,173.707382847038,38.2357723577236,0.801084990958409,0.97789566755084
"67",74,"Kingsbury St & Erie St","Chicago",41.893882,-87.641711,23,"6/26/2013 12:19",NA,2714,2394,181.008081552444,36.4371057513915,0.804008908685969,0.992999263080324
"68",75,"Canal St & Jackson Blvd","Chicago",41.877245,-87.639366,31,"6/26/2013 15:21",NA,1541,1800,186.254715552671,42.7254125412542,0.856105610561056,0.983127839065542
"69",76,"Lake Shore Dr & Monroe St","Chicago",41.880958,-87.616743,39,"6/26/2013 15:26",NA,1924,1337,116.699168399168,37.0175824175824,0.692307692307692,0.232328482328482
"70",77,"Clinton St & Madison St","Chicago",41.882242,-87.641066,31,"6/26/2013 15:27",NA,6234,7438,181.071732969736,40.8821707953064,0.875122269318552,0.983638113570741
"71",80,"Aberdeen St & Monroe St","Chicago",41.880419,-87.655519,19,"6/26/2013 19:00",NA,1389,1503,191.334281257499,36.5301914580266,0.811487481590574,0.977681785457163
"72",81,"Daley Center Plaza","Chicago",41.884241,-87.629634,39,"6/26/2013 19:02",NA,3248,3446,172.053484195402,38.7945552389997,0.80919175911252,0.97198275862069
"73",84,"Milwaukee Ave & Grand Ave","Chicago",41.891578,-87.648384,19,"6/26/2013 19:14",NA,1617,1612,180.92032570604,33.5745085605581,0.834495878249842,0.97526283240569
"74",85,"Michigan Ave & Oak St","Chicago",41.90096039,-87.62377664,23,"6/26/2013 19:18",NA,1408,1529,142.844661458333,37.6906906906906,0.791791791791792,0.709517045454545
"75",86,"Eckhart Park","Chicago",41.89637337,-87.66098386,19,"6/26/2013 19:32",NA,893,844,205.969466218738,32.3627002288329,0.810068649885583,0.978723404255319
"76",87,"Racine Ave & Fullerton Ave","Chicago",41.92556258,-87.65840426,19,"6/26/2013 19:36",NA,758,782,164.670712401055,34.3644986449865,0.787262872628726,0.973614775725594
"77",88,"Racine Ave & Randolph St","Chicago",41.884069,-87.656853,19,"6/26/2013 19:44",NA,1122,1267,172.164349376114,38.2310502283106,0.862888482632541,0.975935828877005
"78",89,"Financial Pl & Congress Pkwy","Chicago",41.87500913,-87.63310582,31,"6/26/2013 19:47",NA,1517,1513,208.796209624258,42.1432360742706,0.93368700265252,0.994067237969677
"79",90,"Millennium Park","Chicago",41.8810317,-87.62408432,47,"6/26/2013 19:51",NA,1779,2386,158.183567547311,40.1449676823638,0.787626962142198,0.608768971332209
"80",91,"Clinton St & Washington Blvd","Chicago",41.88338,-87.64117,31,"6/26/2013 23:39",NA,7689,6775,201.329392638835,43.7502298095862,0.910439921208142,0.990245805696449
"81",92,"Carpenter St & Huron St","Chicago",41.894556,-87.653449,19,"6/27/2013 8:58",NA,619,490,213.289553042542,35.3507340946167,0.797716150081566,0.990306946688207
"82",93,"Sheffield Ave & Willow St","Chicago",41.913688,-87.652855,15,"6/27/2013 11:41",NA,906,992,187.873491537896,34.0316742081448,0.796380090497738,0.975717439293598
"83",94,"Clark St & Armitage Ave","Chicago",41.918306,-87.636282,31,"6/27/2013 12:33",NA,1489,1527,162.13946720394,36.6343115124153,0.714823175319789,0.896574882471457
"84",95,"Stony Island Ave & 64th St","Chicago",41.77870057,-87.58678762,15,"6/27/2013 13:58",NA,24,27,154.808333333333,41.8571428571429,0.285714285714286,0.875
"85",96,"Desplaines St & Randolph St","Chicago",41.88461619,-87.64457058,23,"6/28/2013 10:47",NA,1232,1253,167.569886363636,37.7322033898306,0.886440677966102,0.957792207792208
"86",97,"Field Museum","Chicago",41.865312,-87.617867,55,"6/30/2013 13:25",NA,749,567,145.442122830441,46.0368271954674,0.688385269121813,0.471295060080107
"87",98,"LaSalle St & Washington St","Chicago",41.882664,-87.63253,15,"7/15/2013 14:41",NA,2093,2210,173.795437171524,41.0526059425231,0.847953216374269,0.980410893454372
"88",99,"Lake Shore Dr & Ohio St","Chicago",41.89257,-87.614492,19,"7/15/2013 15:12",NA,931,934,175.405137844612,35.787483702738,0.786179921773142,0.822771213748657
"89",100,"Orleans St & Merchandise Mart Plaza","Chicago",41.888243,-87.63639,35,"7/15/2013 17:26",NA,3080,3025,182.363041125541,36.4540918163673,0.881902860944777,0.976298701298701
"90",101,"63rd St Beach","Chicago",41.78101637,-87.57611976,23,"7/16/2013 1:27",NA,30,29,152.716111111111,37.7222222222222,0.444444444444444,0.6
"91",102,"Stony Island Ave & 67th St","Chicago",41.7734585,-87.58533974,11,"7/16/2013 1:28",NA,63,70,206.548412698413,43.6333333333334,0.0666666666666667,0.952380952380952
"92",103,"Clinton St & Polk St (*)","Chicago",41.87146652,-87.64094913,16,"7/18/2013 15:51",NA,277,385,180.583754512635,35.0814814814814,0.87037037037037,0.974729241877256
"93",106,"State St & Pearson St","Chicago",41.897448,-87.628722,27,"7/18/2013 15:59",NA,1612,1502,198.208209263854,37.196636481242,0.819534282018111,0.959057071960298
"94",107,"Desplaines St & Jackson Blvd","Chicago",41.878287,-87.643909,27,"7/18/2013 16:39",NA,1647,1712,173.236622141267,38.3415233415233,0.758599508599509,0.988463873709775
"95",108,"Halsted St & Polk St","Chicago",41.87184,-87.64664,19,"7/18/2013 16:41",NA,1127,1178,179.242901508429,32.590579710145,0.817934782608696,0.979591836734694
"96",109,"900 W Harrison St","Chicago",41.874754,-87.649807,19,"7/18/2013 16:45",NA,926,863,175.103275737941,35.5727170236753,0.788049605411499,0.957883369330454
"97",110,"Dearborn St & Erie St","Chicago",41.893992,-87.629318,23,"7/18/2013 16:46",NA,2870,2950,191.215040650407,36.4152787834903,0.800144822592324,0.960975609756098
"98",111,"Sedgwick St & Huron St","Chicago",41.894666,-87.638437,19,"7/18/2013 16:52",NA,1341,1340,198.15858811832,36.6815769522366,0.881728582259287,0.983594332587621
"99",112,"Green St & Randolph St","Chicago ",41.883668,-87.64867,15,"7/18/2013 17:00",NA,1317,1577,174.810427739813,37.270867430442,0.865683865683866,0.925588458618071
"100",113,"Bissell St & Armitage Ave","Chicago ",41.91844,-87.65222,15,"7/18/2013 17:09",NA,1098,1153,166.036551305404,33.1208791208792,0.760989010989011,0.994535519125683
"101",114,"Sheffield Ave & Waveland Ave","Chicago",41.949399,-87.654529,27,"7/18/2013 17:17",NA,845,899,156.088441814596,37.0129032258064,0.876129032258064,0.917159763313609
"102",115,"Sheffield Ave & Wellington Ave","Chicago",41.936266,-87.652662,23,"7/18/2013 17:18",NA,1255,1260,144.844926958831,33.5620967741936,0.768548387096774,0.98804780876494
"103",116,"Western Ave & Winnebago Ave","Chicago",41.91552,-87.687022,15,"7/18/2013 17:19",NA,856,918,152.942328660436,39.7282352941177,0.758823529411765,0.992990654205608
"104",117,"Wilton Ave & Belmont Ave","Chicago",41.94018,-87.65304,23,"7/18/2013 17:20",NA,1762,1775,154.987192584185,34.2048693586698,0.779691211401425,0.955732122587968
"105",118,"Sedgwick St & North Ave","Chicago",41.911386,-87.638677,19,"7/18/2013 17:20",NA,1050,999,170.401968253968,35.082082082082,0.814814814814815,0.965714285714286
"106",119,"Ashland Ave & Lake St","Chicago",41.88541,-87.66732,19,"7/18/2013 17:21",NA,617,531,197.813911399244,37.0420875420875,0.734006734006734,0.962722852512156
"107",120,"Wentworth Ave & Archer Ave","Chicago",41.853605,-87.631886,23,"7/18/2013 17:21",NA,443,515,163.803461249059,32.9243243243243,0.789189189189189,0.835214446952596
"108",121,"Blackstone Ave & Hyde Park Blvd","Chicago",41.802562,-87.590368,19,"7/18/2013 17:22",NA,299,259,176.914994425864,37.2296819787987,0.76678445229682,0.946488294314381
"109",122,"Ogden Ave & Congress Pkwy","Chicago",41.87501,-87.67328,15,"7/18/2013 17:23",NA,191,147,188.930191972077,39.4402173913043,0.603260869565217,0.963350785340314
"110",123,"California Ave & Milwaukee Ave","Chicago",41.922695,-87.697153,15,"7/18/2013 17:23",NA,1150,1125,164.782797101449,34.552346570397,0.755415162454874,0.963478260869565
"111",124,"Damen Ave & Cullerton St","Chicago",41.855048,-87.675726,15,"7/18/2013 17:24",NA,223,230,163.918535127055,36.9023255813954,0.716279069767442,0.964125560538117
"112",125,"Rush St & Hubbard St","Chicago",41.890173,-87.626185,23,"7/18/2013 17:53",NA,1645,1722,202.566879432624,38.4692843571881,0.887270424319189,0.959878419452888
"113",126,"Clark St & North Ave","Chicago ",41.911974,-87.631942,15,"7/18/2013 17:54",NA,650,663,159.440307692308,37.4582560296847,0.682745825602968,0.829230769230769
"114",127,"Lincoln Ave & Fullerton Ave","Chicago ",41.925905,-87.64926,15,"7/18/2013 17:55",NA,980,1060,168.231394557823,34.5613850996851,0.757607555089192,0.972448979591837
"115",128,"Damen Ave & Chicago Ave","Chicago",41.895769,-87.67722,19,"7/18/2013 17:55",NA,1306,1393,162.922001020929,33.2519809825674,0.690966719492868,0.966309341500766
"116",129,"Blue Island Ave & 18th St","Chicago ",41.857556,-87.661535,15,"7/18/2013 17:56",NA,737,686,182.000836725464,31.8628257887517,0.695473251028807,0.989145183175034
"117",130,"Damen Ave & Division St","Chicago ",41.903266,-87.678435,15,"7/18/2013 17:57",NA,759,909,151.874286341678,34.2382864792503,0.855421686746988,0.984189723320158
"118",131,"Lincoln Ave & Belmont Ave","Chicago ",41.939365,-87.668385,15,"7/18/2013 17:57",NA,793,791,169.80931063472,35.9756410256409,0.643589743589744,0.983606557377049
"119",132,"Wentworth Ave & 24th St","Chicago ",41.849237,-87.631715,15,"7/18/2013 17:58",NA,103,127,189.259385113269,29.46,0.64,0.970873786407767
"120",133,"Kingsbury St & Kinzie St","Chicago",41.88917683,-87.63850577,31,"7/18/2013 22:47",NA,4819,4847,178.956654215951,36.9284511784513,0.839157894736842,0.985889188628346
"121",134,"Peoria St & Jackson Blvd","Chicago",41.877749,-87.649633,19,"7/18/2013 22:48",NA,1859,1718,168.255630267169,36.6739486619333,0.849262697979246,0.984938138784293
"122",135,"Halsted St & 21st St","Chicago",41.85378,-87.64665,11,"7/18/2013 22:49",NA,85,125,158.780392156863,34.493670886076,0.784810126582278,0.929411764705882
"123",136,"Racine Ave & 13th St","Chicago ",41.865054,-87.656959,15,"7/18/2013 22:52",NA,155,153,188.301182795699,35.2337662337663,0.954545454545455,0.993548387096774
"124",137,"Morgan Ave & 14th Pl","Chicago ",41.862378,-87.651062,15,"7/18/2013 22:54",NA,641,580,190.17511700468,36.2253968253967,0.673015873015873,0.982839313572543
"125",138,"Clybourn Ave & Division St","Chicago ",41.904613,-87.640552,15,"7/18/2013 22:55",NA,850,902,194.713803921569,33.8521634615386,0.778580024067389,0.976470588235294
"126",140,"Dearborn Pkwy & Delaware Pl","Chicago ",41.898969,-87.629912,19,"7/18/2013 22:56",NA,1834,2118,192.06826608506,38.0863228699552,0.743532058492688,0.972191930207197
"127",141,"Clark St & Lincoln Ave","Chicago ",41.915689,-87.6346,23,"7/18/2013 22:57",NA,1236,1247,166.071426645092,35.6546112115732,0.607594936708861,0.894822006472492
"128",142,"McClurg Ct & Erie St","Chicago ",41.894503,-87.617854,31,"7/18/2013 22:58",NA,2091,2174,183.321504862107,35.5768660405338,0.725654967869501,0.967479674796748
"129",143,"Sedgwick St & Webster Ave","Chicago ",41.922167,-87.638888,15,"7/19/2013 9:19",NA,1189,1063,153.327866554528,38.4364444444445,0.759111111111111,0.945332211942809
"130",144,"Larrabee St & Webster Ave","Chicago ",41.921822,-87.64414,19,"7/19/2013 9:20",NA,1080,1066,144.388950617284,34.7130264446621,0.783333333333333,0.94537037037037
"131",145,"Mies van der Rohe Way & Chestnut St","Chicago",41.89858665,-87.62191523,19,"7/19/2013 9:20",NA,1444,1318,169.654686057248,37.0553846153846,0.827692307692308,0.89819944598338
"132",146,"Loomis St & Jackson Blvd","Chicago ",41.877945,-87.662007,11,"7/19/2013 9:21",NA,731,675,202.483720930233,39.128453038674,0.75828729281768,0.990424076607387
"133",147,"Indiana Ave & 26th St","Chicago ",41.845687,-87.622481,15,"7/19/2013 9:22",NA,136,153,137.881740196078,40.484126984127,0.793650793650794,0.926470588235294
"134",148,"State St & 33rd St","Chicago ",41.834734,-87.625813,15,"7/19/2013 9:22",NA,846,983,162.085795902285,27.4418604651162,0.7796817625459,0.965721040189125
"135",149,"Calumet Ave & 33rd St","Chicago ",41.8349,-87.61793,11,"7/19/2013 9:23",NA,425,379,138.769294117647,28.1748768472905,0.783251231527094,0.955294117647059
"136",150,"Fort Dearborn Dr & 31st St","Chicago ",41.838556,-87.608218,27,"7/19/2013 9:23",NA,232,226,133.271408045977,34.8957055214723,0.699386503067485,0.702586206896552
"137",152,"Lincoln Ave & Diversey Pkwy","Chicago ",41.932225,-87.658617,15,"7/19/2013 9:25",NA,834,745,156.114228617106,33.1026894865527,0.687041564792176,0.980815347721823
"138",153,"Southport Ave & Wellington Ave","Chicago ",41.935733,-87.663576,19,"7/19/2013 9:34",NA,1241,1286,159.934864356702,32.6153846153845,0.786415711947627,0.984689766317486
"139",154,"Southport Ave & Belmont Ave","Chicago ",41.93949,-87.66378,15,"7/19/2013 9:34",NA,499,499,150.796559786239,32.1512605042017,0.796218487394958,0.953907815631262
"140",156,"Clark St & Wellington Ave","Chicago ",41.93649682,-87.64753866,15,"7/19/2013 9:35",NA,1208,1160,150.901614238411,35.5097210481827,0.839391377852916,0.979304635761589
"141",157,"Lake Shore Dr & Wellington Ave","Chicago ",41.936669,-87.636794,15,"7/19/2013 9:36",NA,584,658,128.327910958904,36.9532710280373,0.672897196261682,0.916095890410959
"142",158,"Milwaukee Ave & Wabansia Ave","Chicago ",41.912616,-87.681391,15,"7/19/2013 9:40",NA,843,867,160.306227758007,34.9357231149568,0.683559950556242,0.959667852906287
"143",159,"Claremont Ave & Hirsch St","Chicago",41.907781,-87.685854,11,"7/19/2013 9:56",NA,382,327,125.71164921466,32.1846965699208,0.614775725593668,0.992146596858639
"144",160,"Campbell Ave & North Ave","Chicago",41.910535,-87.689556,15,"7/19/2013 9:57",NA,341,367,124.663147605083,33.1009174311926,0.896024464831804,0.958944281524927
"145",161,"Rush St & Superior St","Chicago",41.89576475,-87.62590803,23,"7/19/2013 10:00",NA,1466,1452,177.863869940882,39.8153846153846,0.733333333333333,0.931105047748977
"146",162,"Damen Ave & Wellington Ave","Chicago",41.93588,-87.67842,15,"7/19/2013 10:02",NA,253,247,173.171805006588,38.9094650205761,0.864197530864197,0.960474308300395
"147",163,"Damen Ave & Clybourn Ave","Chicago",41.931931,-87.677856,15,"7/19/2013 10:02",NA,343,368,167.273663751215,35.4320241691844,0.876132930513595,0.965014577259475
"148",164,"Franklin St & Lake St","Chicago",41.885837,-87.6355,27,"7/19/2013 10:03",NA,2575,2076,173.531262135922,38.8027102431247,0.855661881977671,0.973980582524272
"149",165,"Clark St & Grace St","Chicago",41.95078,-87.659172,19,"7/19/2013 10:03",NA,554,513,160.146389891697,33.1660377358492,0.881132075471698,0.956678700361011
"150",166,"Ashland Ave & Wrightwood Ave","Chicago ",41.92883,-87.668507,15,"7/19/2013 10:07",NA,334,390,167.102894211577,38.5243902439024,0.853658536585366,0.982035928143713
"151",167,"Damen Ave & Coulter St","Chicago ",41.8492,-87.67564,11,"7/19/2013 10:08",NA,69,97,177.478985507246,33.1911764705883,0.338235294117647,0.985507246376812
"152",168,"Michigan Ave & 14th St","Chicago ",41.864059,-87.623727,19,"7/19/2013 10:08",NA,1032,1143,191.85059754522,39.2547834843908,0.740181268882175,0.961240310077519
"153",169,"Canal St & Harrison St","Chicago ",41.874255,-87.639573,15,"7/19/2013 10:09",NA,438,382,162.384208523592,46.6762589928057,0.690647482014389,0.952054794520548
"154",170,"Clinton St & 18th St","Chicago",41.85795,-87.640826,15,"7/19/2013 11:04",NA,426,431,203.802503912363,40.0357142857142,0.956632653061224,0.92018779342723
"155",171,"May St & Cullerton St","Chicago ",41.855136,-87.654127,11,"7/19/2013 11:05",NA,217,194,162.901152073733,30.0704225352113,0.812206572769953,0.981566820276498
"156",172,"Rush St & Cedar St","Chicago",41.9023087,-87.62769053,11,"7/19/2013 11:05",NA,1094,1123,182.998522242535,33.4431256181997,0.757425742574257,0.922303473491773
"157",173,"Mies van der Rohe Way & Chicago Ave","Chicago ",41.89691,-87.621743,15,"7/19/2013 11:07",NA,1401,1480,187.054472995479,36.9337442218798,0.783513097072419,0.926481084939329
"158",174,"Canal St & Madison St","Chicago ",41.882091,-87.639833,35,"7/19/2013 11:07",NA,4696,5093,193.886886002271,40.8555987894508,0.895567567567568,0.984880749574106
"159",175,"Wells St & Polk St","Chicago ",41.872596,-87.633502,19,"7/19/2013 11:08",NA,1171,1026,189.025903785938,34.5507372072852,0.868169991326973,0.984628522630231
"160",176,"Clark St & Elm St","Chicago ",41.902973,-87.63128,27,"7/19/2013 11:08",NA,2301,2408,190.378045777198,33.5384265575262,0.766742596810934,0.95393307257714
"161",177,"Theater on the Lake","Chicago ",41.926277,-87.630834,23,"7/19/2013 11:09",NA,1163,1275,121.479764975638,36.5572254335259,0.719907407407407,0.742046431642304
"162",178,"State St & 19th St","Chicago ",41.856594,-87.627542,15,"7/19/2013 11:10",NA,174,202,185.992432950192,37.6092715231789,0.880794701986755,0.867816091954023
"163",179,"MLK Jr Dr & Oakwood Blvd","Chicago",41.82256,-87.61615,15,"7/19/2013 11:12",NA,67,57,75.3838308457711,43.3538461538462,0.630769230769231,0.970149253731343
"164",180,"Ritchie Ct & Banks St","Chicago",41.906866,-87.626217,15,"7/19/2013 11:14",NA,568,548,187.340757042254,36.6421845574389,0.713747645951036,0.934859154929577
"165",181,"LaSalle St & Illinois St","Chicago",41.890762,-87.631697,31,"7/19/2013 11:15",NA,2747,2829,179.674778546293,34.6537867078825,0.851894818252127,0.940298507462687
"166",182,"Wells St & Elm St","Chicago",41.903222,-87.634324,23,"7/20/2013 12:38",NA,1368,1375,196.451401072125,33.0490936555891,0.745275888133031,0.967105263157895
"167",183,"Damen Ave & Augusta Blvd","Chicago",41.899113,-87.677212,23,"7/20/2013 17:09",NA,904,768,146.413458702065,32.6565656565656,0.7003367003367,0.985619469026549
"168",184,"State St & 35th St","Chicago",41.83104,-87.62688,19,"7/21/2013 7:52",NA,228,340,158.204459064327,30.2465753424658,0.799086757990868,0.960526315789474
"169",185,"Stave St & Armitage Ave","Chicago",41.917741,-87.691392,11,"7/26/2013 10:32",NA,192,204,172.400086805556,32.391304347826,0.722826086956522,0.958333333333333
"170",186,"Ogden Ave & Race Ave","Chicago",41.891795,-87.658751,15,"7/27/2013 13:03",NA,674,804,207.587487636004,34.7257318952234,0.856702619414484,0.962908011869436
"171",188,"Greenview Ave & Fullerton Ave","Chicago",41.92533,-87.6658,15,"7/28/2013 14:35",NA,574,634,179.669279907085,32.2563176895308,0.859205776173285,0.965156794425087
"172",190,"Southport Ave & Wrightwood Ave","Chicago",41.928773,-87.663913,15,"8/5/2013 9:36",NA,718,627,164.457938718663,35.8773181169759,0.821683309557775,0.976323119777159
"173",191,"Canal St & Monroe St (*)","Chicago",41.880884,-87.639525,28,"8/6/2013 13:14",NA,2329,2673,177.821139258623,39.9324731182796,0.876559139784946,0.998282524688708
"174",192,"Canal St & Adams St","Chicago",41.879255,-87.639904,47,"8/6/2013 13:27",NA,8483,9063,200.394453613109,41.9253250626268,0.878057511036869,0.987858069079335
"175",193,"State St & 29th St","Chicago",41.841707,-87.626938,15,"8/6/2013 14:08",NA,43,15,84.9577519379845,37.2093023255813,0.976744186046512,1
"176",194,"Wabash Ave & Wacker Pl","Chicago",41.886875,-87.62603,19,"8/7/2013 14:01",NA,1573,1497,174.101271455817,42.7231955150667,0.847290640394089,0.902733630006357
"177",195,"Columbus Dr & Randolph St","Chicago",41.884728,-87.619521,47,"8/7/2013 14:11",NA,4309,2419,194.826057863387,41.9326781326781,0.875890882280659,0.942910187978649
"178",196,"Cityfront Plaza Dr & Pioneer Ct","Chicago",41.890573,-87.622072,23,"8/7/2013 16:23",NA,1504,1207,197.226994680851,39.0827933765299,0.840057636887608,0.922872340425532
"179",197,"Michigan Ave & Madison St","Chicago",41.882134,-87.625125,19,"8/8/2013 11:27",NA,1316,1302,172.543642350557,42.8531879194632,0.799159663865546,0.904255319148936
"180",198,"Green St & Madison St","Chicago",41.881892,-87.648789,19,"8/8/2013 11:47",NA,1793,1924,183.576240936977,35.4971164936562,0.813040969417196,0.968767428890128
"181",199,"Wabash Ave & Grand Ave","Chicago",41.891466,-87.626761,31,"8/8/2013 12:26",NA,2055,2074,182.075442011354,37.0691857370941,0.845580404685836,0.913868613138686
"182",200,"MLK Jr Dr & 47th St","Chicago",41.809851,-87.616279,11,"8/10/2013 15:31",NA,24,28,152.177083333333,33.6500000000001,0.9,0.833333333333333
"183",201,"Indiana Ave & 40th St","Chicago",41.82168,-87.6216,15,"8/10/2013 15:47",NA,53,56,132.597169811321,36.4905660377358,0.660377358490566,1
"184",202,"Halsted St & 18th St","Chicago",41.857499,-87.646277,15,"8/12/2013 17:23",NA,224,235,155.019047619048,34.8095238095239,0.742857142857143,0.9375
"185",203,"Western Ave & 21st St","Chicago",41.854109,-87.685838,15,"8/13/2013 11:55",NA,195,194,130.660854700855,39.7668393782383,0.94300518134715,0.98974358974359
"186",204,"Prairie Ave & Garfield Blvd","Chicago",41.794853,-87.618691,11,"8/13/2013 15:14",NA,171,171,195.884015594542,39.1708860759493,0.620253164556962,0.923976608187134
"187",205,"Paulina St & 18th St","Chicago",41.857901,-87.668745,15,"8/13/2013 16:01",NA,481,493,175.112993762994,36.5808510638299,0.704255319148936,0.977130977130977
"188",206,"Halsted St & Archer Ave","Chicago",41.847203,-87.646795,15,"8/14/2013 8:53",NA,213,211,165.279029733959,35.9117647058824,0.622549019607843,0.957746478873239
"189",207,"Emerald Ave & 28th St","Chicago",41.84358,-87.645368,15,"8/14/2013 10:26",NA,239,200,162.32050209205,34.1050420168067,0.647058823529412,0.99581589958159
"190",208,"Ashland Ave & 21st St","Chicago",41.85381,-87.665897,15,"8/14/2013 13:01",NA,91,116,169.867948717949,40.1379310344828,0.781609195402299,0.956043956043956
"191",209,"Normal Ave & Archer Ave","Chicago",41.849527,-87.640591,11,"8/14/2013 13:18",NA,152,128,151.913925438596,33.9862068965517,0.696551724137931,0.953947368421053
"192",210,"Ashland Ave & Division St","Chicago",41.90345,-87.667747,19,"8/14/2013 16:30",NA,1513,1379,163.709043842256,33.8153950953679,0.799727520435967,0.970257766027759
"193",211,"St. Clair St & Erie St","Chicago",41.894448,-87.622663,19,"8/14/2013 16:32",NA,2515,3178,200.378913187541,41.3170833333334,0.760633861551293,0.953479125248509
"194",212,"Orleans St & Ohio St","Chicago",41.892154,-87.636928,23,"8/14/2013 17:16",NA,1677,1735,194.878453587756,34.7648484848485,0.823030303030303,0.983899821109123
"195",213,"Leavitt St & North Ave","Chicago",41.910153,-87.68229,15,"8/15/2013 11:42",NA,508,444,128.990091863517,34.3882113821139,0.715447154471545,0.968503937007874
"196",214,"Damen Ave & Grand Ave","Chicago",41.89122,-87.67686,23,"8/15/2013 11:46",NA,572,622,156.243997668998,35.4908088235295,0.636029411764706,0.951048951048951
"197",215,"Damen Ave & Madison St","Chicago",41.88137,-87.67493,15,"8/15/2013 14:08",NA,275,268,172.857757575758,38.2730923694778,0.646586345381526,0.905454545454545
"198",216,"California Ave & Division St","Chicago",41.903029,-87.697474,15,"8/15/2013 14:13",NA,148,191,167.854166666667,32.9848484848485,0.628787878787879,0.891891891891892
"199",217,"Racine Ave (May St) & Fulton St","Chicago",41.886926,-87.656919,15,"8/15/2013 15:14",NA,1038,1066,175.663391136802,37.5111326234269,0.906976744186046,0.995183044315992
"200",218,"Wells St & 19th St","Chicago",41.856802,-87.633879,11,"8/15/2013 16:21",NA,64,76,109.696875,36.5744680851064,0.765957446808511,0.734375
"201",219,"Damen Ave & Cortland St","Chicago",41.916027,-87.677411,19,"8/16/2013 11:54",NA,941,913,149.743730074389,35.9922222222222,0.737777777777778,0.956429330499469
"202",220,"Hampden Ct & Diversey Pkwy","Chicago",41.93262,-87.642385,23,"8/16/2013 11:58",NA,1256,1477,149.138004246285,33.916736053289,0.715,0.956210191082803
"203",222,"Milwaukee Ave & Rockwell St","Chicago",41.920195,-87.693033,19,"8/16/2013 15:04",NA,261,260,146.49220945083,34.8307086614172,0.751968503937008,0.973180076628352
"204",223,"Clifton Ave & Armitage Ave","Chicago",41.918216,-87.656936,15,"8/16/2013 16:07",NA,738,726,165.723825654923,33.8074179743223,0.699001426533523,0.949864498644986
"205",224,"Halsted St & Willow St","Chicago",41.913778,-87.64884,19,"8/16/2013 17:25",NA,424,495,159.167767295597,34.6283618581906,0.63080684596577,0.964622641509434
"206",225,"Halsted St & Dickens Ave","Chicago",41.919936,-87.64883,15,"8/19/2013 9:23",NA,804,867,158.035883084577,35.2612612612613,0.813384813384813,0.965174129353234
"207",226,"Racine Ave & Belmont Ave","Chicago",41.939743,-87.658865,15,"8/19/2013 9:29",NA,687,693,144.259922367783,33.9923547400613,0.68960244648318,0.951965065502183
"208",227,"Southport Ave & Waveland Ave","Chicago",41.94815,-87.66394,23,"8/19/2013 13:15",NA,1010,1013,162.961105610561,37.6837256908905,0.757420675537359,0.967326732673267
"209",228,"Damen Ave & Melrose Ave","Chicago",41.9406,-87.6785,15,"8/19/2013 15:50",NA,226,234,171.115486725664,35.7363636363636,0.540909090909091,0.973451327433628
"210",229,"Southport Ave & Roscoe St","Chicago",41.943739,-87.66402,19,"8/19/2013 16:10",NA,1057,1174,153.846625670136,34.5486381322958,0.775291828793774,0.972563859981079
"211",230,"Lincoln Ave & Roscoe St","Chicago",41.94334,-87.67097,19,"8/19/2013 17:20",NA,970,1033,165.915962199313,37.7216386554621,0.80672268907563,0.981443298969072
"212",231,"Sheridan Rd & Montrose Ave","Chicago",41.96167,-87.65464,23,"8/20/2013 10:12",NA,615,731,168.283170731707,36.9574829931973,0.722316865417376,0.95609756097561
"213",232,"Pine Grove Ave & Waveland Ave","Chicago",41.949275,-87.646303,23,"8/20/2013 11:09",NA,993,826,158.483803289695,36.4491701244813,0.778008298755187,0.97079556898288
"214",233,"Sangamon St & Washington Blvd (*)","Chicago",41.883004,-87.651148,16,"8/20/2013 11:46",NA,1121,1057,182.833690157597,37.2562949640287,0.77158273381295,0.990187332738626
"215",234,"Clark St & Montrose Ave","Chicago",41.961588,-87.666036,19,"8/20/2013 14:21",NA,426,381,169.820031298905,36.304761904762,0.764285714285714,0.985915492957746
"216",236,"Sedgwick St & Schiller St","Chicago",41.905664,-87.638517,15,"8/20/2013 16:12",NA,251,276,172.032802124834,33.954356846473,0.912863070539419,0.960159362549801
"217",237,"MLK Jr Dr & 29th St","Chicago",41.842052,-87.617,15,"8/20/2013 16:56",NA,950,598,193.039929824561,29.7214514407683,0.76093916755603,0.986315789473684
"218",238,"Ravenswood Ave & Montrose Ave (*)","Chicago",41.961615,-87.674365,16,"8/21/2013 9:51",NA,403,385,168.246732837055,36.6347607052896,0.730478589420655,0.985111662531017
"219",239,"Western Ave & Leland Ave","Chicago",41.966555,-87.688487,19,"8/21/2013 10:50",NA,753,761,177.293116423196,39.0681198910081,0.753405994550409,0.974767596281541
"220",240,"Sheridan Rd & Irving Park Rd","Chicago",41.954245,-87.654406,27,"8/21/2013 11:07",NA,1490,1509,144.748422818792,37.5602202339987,0.845836200963524,0.975167785234899
"221",241,"Morgan St & Polk St","Chicago ",41.871737,-87.65103,19,"8/21/2013 11:57",NA,2040,2073,182.682647058824,31.3095238095239,0.812996031746032,0.988235294117647
"222",242,"Damen Ave & Leland Ave","Chicago ",41.967094,-87.679028,15,"8/21/2013 16:08",NA,663,564,161.125917546506,39.3510638297873,0.702127659574468,0.992458521870287
"223",243,"Lincoln Ave & Leavitt St","Chicago ",41.962391,-87.684146,15,"8/21/2013 16:45",NA,462,493,172.935137085137,39.4578587699316,0.728929384965831,0.95021645021645
"224",244,"Ravenswood Ave & Irving Park Rd","Chicago",41.95469,-87.67393,19,"8/22/2013 9:49",NA,459,498,168.043972403776,35.5066371681417,0.789823008849557,0.984749455337691
"225",245,"Clarendon Ave & Junior Ter","Chicago",41.961004,-87.649603,23,"8/22/2013 11:01",NA,278,351,172.893165467626,40.2567049808429,0.613026819923372,0.938848920863309
"226",246,"Ashland Ave & Belle Plaine Ave","Chicago",41.956061,-87.668869,11,"8/22/2013 12:47",NA,250,215,156.120666666667,38.3879999999999,0.9,1
"227",247,"Shore Dr & 55th St","Chicago",41.795212,-87.580715,19,"8/22/2013 12:50",NA,616,595,171.60045995671,39.1825938566553,0.767918088737201,0.951298701298701
"228",248,"Woodlawn Ave & 55th St","Chicago",41.795264,-87.596471,19,"8/22/2013 14:31",NA,441,426,152.745011337868,36.3380952380953,0.757946210268949,0.950113378684807
"229",249,"Montrose Harbor","Chicago",41.963982,-87.638181,31,"8/22/2013 17:09",NA,379,345,145.967678100264,38.4803493449781,0.646288209606987,0.604221635883905
"230",250,"Ashland Ave & Wellington Ave","Chicago",41.936083,-87.669807,19,"8/23/2013 9:09",NA,345,414,148.707632850242,39.1147058823528,0.811764705882353,0.985507246376812
"231",251,"Clarendon Ave & Leland Ave","Chicago",41.967968,-87.650001,15,"8/26/2013 11:52",NA,274,264,143.728588807786,39.8250950570343,0.771863117870722,0.95985401459854
"232",252,"Greenwood Ave & 47th St","Chicago",41.809835,-87.599383,15,"8/26/2013 14:33",NA,129,139,212.828036175711,39.9842519685039,0.94488188976378,0.968992248062015
"233",253,"Clifton Ave & Lawrence Ave","Chicago",41.968812,-87.657659,15,"8/31/2013 8:58",NA,388,388,163.798109965636,37.3451086956522,0.754768392370572,0.948453608247423
"234",254,"Pine Grove Ave & Irving Park Rd","Chicago",41.954383,-87.648043,15,"8/31/2013 9:03",NA,915,865,150.635519125683,38.9699421965317,0.776878612716763,0.945355191256831
"235",255,"Indiana Ave & Roosevelt Rd","Chicago",41.867888,-87.623041,39,"8/31/2013 10:38",NA,2156,1996,180.041914038343,41.137400530504,0.728480340063762,0.87430426716141
"236",256,"Broadway & Sheridan Rd","Chicago",41.952833,-87.649993,15,"8/31/2013 11:54",NA,618,575,155.890237324703,36.7601351351352,0.767796610169492,0.957928802588997
"237",257,"Lincoln Ave & Waveland Ave","Chicago",41.948797,-87.675278,15,"8/31/2013 12:17",NA,471,495,160.094161358811,35.1132478632478,0.634615384615385,0.993630573248408
"238",258,"Logan Blvd & Elston Ave","Chicago",41.930584,-87.685126,19,"8/31/2013 14:15",NA,449,496,187.404008908686,35.425629290618,0.819221967963387,0.973273942093541
"239",259,"California Ave & Francis Pl","Chicago",41.918121,-87.696972,15,"9/3/2013 9:39",NA,327,340,150.865137614679,31.2952380952381,0.701587301587302,0.960244648318043
"240",260,"Kedzie Ave & Milwaukee Ave","Chicago",41.929567,-87.707857,27,"9/3/2013 12:41",NA,1110,1113,155.63990990991,35.2290874524715,0.760456273764259,0.947747747747748
"241",261,"Hermitage Ave & Polk St","Chicago",41.871514,-87.669886,15,"9/3/2013 13:15",NA,945,893,188.013562610229,36.9200000000001,0.743783783783784,0.978835978835979
"242",262,"Halsted St & 37th St","Chicago",41.827059,-87.64572,11,"9/3/2013 13:18",NA,32,30,150.3015625,39.8125,0.90625,1
"243",263,"Rhodes Ave & 32nd St","Chicago",41.836208,-87.613533,11,"9/3/2013 13:47",NA,91,78,152.569413919414,27.1923076923076,0.807692307692308,0.857142857142857
"244",264,"Stetson Ave & South Water St","Chicago",41.886835,-87.62232,19,"9/3/2013 15:12",NA,2080,1102,192.513541666667,40.2710420841684,0.853206412825651,0.958653846153846
"245",265,"Cottage Grove Ave & Oakwood Blvd","Chicago",41.822985,-87.6071,15,"9/3/2013 17:01",NA,42,49,179.365476190476,42,0.823529411764706,0.80952380952381
"246",267,"Lake Park Ave & 47th St","Chicago",41.809443,-87.591875,15,"9/4/2013 15:57",NA,90,84,134.494814814815,37.4166666666667,0.63855421686747,0.933333333333333
"247",268,"Lake Shore Dr & North Blvd","Chicago",41.911722,-87.626804,39,"9/5/2013 9:48",NA,951,909,149.410077111812,36.4525862068965,0.676258992805755,0.73080967402734
"248",270,"Stony Island Ave & 75th St","Chicago",41.75866967,-87.58688287,11,"9/5/2013 14:16",NA,50,50,203.895333333333,46.3673469387754,0.530612244897959,0.98
"249",271,"Cottage Grove Ave & 43rd St","Chicago",41.816499,-87.606582,11,"9/9/2013 16:33",NA,17,10,200.354901960784,41.625,0.625,0.941176470588235
"250",272,"Indiana Ave & 31st St","Chicago",41.838842,-87.621857,11,"9/9/2013 16:51",NA,349,385,150.032951289398,33.6472303206997,0.801749271137026,0.982808022922636
"251",273,"Michigan Ave & 18th St","Chicago",41.857813,-87.62455,23,"9/10/2013 9:13",NA,1114,1134,201.575837821664,37.3741814780169,0.791393826005613,0.957809694793537
"252",274,"Racine Ave & 15th St","Chicago",41.861267,-87.656625,15,"9/10/2013 10:45",NA,261,234,194.352490421456,31.7120622568093,0.898832684824903,0.984674329501916
"253",275,"Ashland Ave & 13th St","Chicago",41.865234,-87.666507,15,"9/10/2013 12:20",NA,274,328,208.156204379562,35.812030075188,0.785714285714286,0.970802919708029
"254",276,"California Ave & North Ave","Chicago",41.91044,-87.6972,11,"9/10/2013 14:24",NA,199,213,158.23986599665,35.0108695652175,0.66304347826087,0.924623115577889
"255",277,"Ashland Ave & Grand Ave","Chicago",41.891072,-87.666611,15,"9/10/2013 14:57",NA,442,464,198.48838612368,32.6322115384614,0.591346153846154,0.941176470588235
"256",278,"Wallace St & 35th St","Chicago",41.830629,-87.64129,15,"9/10/2013 15:57",NA,227,247,99.2002202643172,32.4469026548672,0.902654867256637,0.995594713656388
"257",279,"Halsted St & 35th St (*)","Chicago",41.830661,-87.647172,16,"9/11/2013 9:17",NA,98,115,150.201530612245,34.9072164948454,0.824742268041237,0.989795918367347
"258",280,"Morgan St & 31st St","Chicago",41.8378,-87.65114,11,"9/11/2013 11:50",NA,196,208,155.920323129252,33.0430107526881,0.908108108108108,0.948979591836735
"259",281,"Western Ave & 24th St","Chicago",41.84847,-87.685109,11,"9/11/2013 12:09",NA,77,68,117.36341991342,31.1666666666667,0.805555555555556,0.935064935064935
"260",282,"Halsted St & Maxwell St","Chicago",41.864883,-87.647071,15,"9/11/2013 14:02",NA,728,844,175.751717032967,32.3605633802817,0.77887323943662,0.975274725274725
"261",283,"LaSalle St & Jackson Blvd","Chicago",41.87817,-87.631985,35,"9/11/2013 15:53",NA,3218,3188,183.795276569298,43.3781379091197,0.904988878296791,0.977936606587943
"262",284,"Michigan Ave & Jackson Blvd","Chicago",41.87785,-87.62408,23,"9/12/2013 9:21",NA,1279,1463,180.394109981757,41.9495495495496,0.782687105500451,0.867865519937451
"263",285,"Wood St & Hubbard St","Chicago",41.889587,-87.671956,19,"9/12/2013 10:22",NA,416,535,173.536578525641,36.7227722772277,0.732673267326733,0.971153846153846
"264",286,"Franklin St & Quincy St","Chicago",41.878724,-87.634793,23,"9/12/2013 12:08",NA,2393,2085,174.381647861819,38.5858240819812,0.893680614859095,0.977852068533222
"265",287,"Franklin St & Monroe St","Chicago",41.880317,-87.635185,27,"9/12/2013 14:19",NA,3663,3102,179.916898716899,37.2688293370945,0.872214386459803,0.967512967512968
"266",288,"Larrabee St & Armitage Ave","Chicago",41.918084,-87.643749,11,"9/12/2013 15:23",NA,712,663,142.536587078652,35.2985714285714,0.625714285714286,0.98314606741573
"267",289,"Wells St & Concord Ln","Chicago",41.912133,-87.634656,19,"9/13/2013 9:46",NA,1991,2124,180.673673196049,34.4410705095213,0.723623262995368,0.976393771973882
"268",290,"Kedzie Ave & Palmer Ct","Chicago",41.921525,-87.707322,15,"9/13/2013 10:50",NA,512,488,151.866731770833,35.5262096774193,0.780241935483871,0.96875
"269",291,"Wells St & Evergreen Ave","Chicago",41.906724,-87.63483,19,"9/13/2013 12:11",NA,1043,1112,195.127996164909,34.349159248269,0.816023738872404,0.969319271332694
"270",292,"Southport Ave & Clark St","Chicago",41.957081,-87.664199,11,"9/13/2013 14:55",NA,293,241,165.318316268487,37.5,0.670138888888889,0.982935153583618
"271",293,"Broadway & Wilson Ave","Chicago",41.965221,-87.658139,15,"9/17/2013 14:59",NA,499,481,170.756312625251,38.4135802469136,0.738144329896907,0.973947895791583
"272",294,"Broadway & Berwyn Ave","Chicago",41.978353,-87.659753,15,"9/17/2013 15:42",NA,666,731,152.517667667668,37.8170347003154,0.738170347003155,0.951951951951952
"273",295,"Broadway & Argyle St","Chicago",41.973815,-87.65966,15,"9/17/2013 17:38",NA,519,546,174.524534360951,36.278978388998,0.754420432220039,0.980732177263969
"274",296,"Broadway & Belmont Ave","Chicago",41.940106,-87.645451,19,"9/17/2013 17:48",NA,810,994,160.81353909465,33.4780292942744,0.749667110519308,0.92716049382716
"275",297,"Paulina St & Montrose Ave","Chicago",41.961507,-87.671387,15,"9/18/2013 11:00",NA,217,219,172.097004608295,39.8151658767772,0.895734597156398,0.972350230414747
"276",298,"Lincoln Ave & Belle Plaine Ave","Chicago",41.955927,-87.679259,15,"9/18/2013 11:51",NA,361,421,170.351154201293,38.8757062146892,0.677966101694915,0.980609418282548
"277",299,"Halsted St & Roscoe St","Chicago",41.94367,-87.64895,15,"9/18/2013 14:50",NA,1153,1142,155.506345764672,36.1882247992864,0.854334226988382,0.972246313963573
"278",300,"Broadway & Barry Ave","Chicago",41.937725,-87.644095,19,"9/18/2013 15:13",NA,1482,1658,155.135919928025,34.4037089871613,0.793865905848787,0.946018893387314
"279",301,"Clark St & Schiller St","Chicago",41.907993,-87.631501,19,"9/18/2013 16:18",NA,1284,1099,185.773974558671,40.1040832666133,0.77982385908727,0.97196261682243
"280",302,"Sheffield Ave & Wrightwood Ave","Chicago",41.928712,-87.653833,19,"9/18/2013 16:55",NA,516,546,145.102551679587,33.174180327869,0.840163934426229,0.945736434108527
"281",303,"Broadway & Cornelia Ave","Chicago",41.945529,-87.646439,23,"9/19/2013 9:39",NA,922,878,153.734598698482,36.2585635359117,0.740331491712707,0.981561822125813
"282",304,"Broadway & Waveland Ave","Chicago",41.949074,-87.648636,15,"9/19/2013 12:10",NA,805,806,156.855983436853,38.8989769820971,0.792838874680307,0.971428571428571
"283",305,"Western Ave & Division St","Chicago",41.902893,-87.687275,15,"9/19/2013 12:55",NA,426,436,127.622613458529,34.6747572815534,0.810679611650485,0.967136150234742
"284",306,"Sheridan Rd & Buena Ave","Chicago",41.958494,-87.654966,19,"9/19/2013 15:36",NA,410,405,143.245040650407,36.5236907730673,0.655860349127182,0.978048780487805
"285",307,"Southport Ave & Clybourn Ave","Chicago",41.920771,-87.663712,15,"9/19/2013 16:30",NA,827,931,182.744336960903,35.8740648379053,0.825436408977556,0.969770253929867
"286",308,"Seeley Ave & Roscoe St","Chicago",41.943403,-87.679618,11,"9/19/2013 16:55",NA,284,290,149.199354460094,34.6159420289855,0.807971014492754,0.971830985915493
"287",309,"Leavitt St & Armitage Ave","Chicago",41.917805,-87.682437,11,"9/19/2013 17:19",NA,385,353,143.459653679654,37.0297297297298,0.775675675675676,0.958441558441558
"288",310,"Damen Ave & Charleston St","Chicago",41.920082,-87.677855,11,"9/19/2013 17:59",NA,316,334,171.002689873418,36.9283387622149,0.762541806020067,0.971518987341772
"289",311,"Leavitt St & Lawrence Ave","Chicago",41.968885,-87.684001,19,"9/20/2013 9:23",NA,350,317,156.606952380952,37.3782991202347,0.824046920821114,0.974285714285714
"290",312,"Clarendon Ave & Gordon Ter","Chicago",41.957879,-87.649519,15,"9/20/2013 9:45",NA,845,856,156.255877712032,35.9106487148103,0.746634026927785,0.966863905325444
"291",313,"Lakeview Ave & Fullerton Pkwy","Chicago",41.925858,-87.638973,19,"9/20/2013 10:42",NA,863,971,140.831286210892,37.7835723598434,0.736292428198433,0.888760139049826
"292",314,"Ravenswood Ave & Berteau Ave","Chicago",41.957921,-87.673567,15,"9/20/2013 11:56",NA,432,325,188.998456790123,32.2116279069767,0.786046511627907,0.99537037037037
"293",315,"Elston Ave & Wabansia Ave","Chicago",41.912919,-87.664169,23,"9/20/2013 12:38",NA,325,333,174.57,37.7272727272727,0.84012539184953,0.981538461538462
"294",316,"Damen Ave & Sunnyside Ave","Chicago",41.96325,-87.679258,19,"9/20/2013 14:22",NA,180,185,148.421018518519,37.3641618497111,0.751445086705202,0.961111111111111
"295",317,"Wood St & Taylor St","Chicago",41.869154,-87.671045,23,"9/20/2013 14:44",NA,934,1035,176.439025695931,35.5855758880516,0.677801724137931,0.990364025695932
"296",318,"Southport Ave & Irving Park Rd","Chicago",41.954177,-87.664358,15,"9/20/2013 14:56",NA,513,496,166.411176088369,36.5222672064776,0.842105263157895,0.962962962962963
"297",319,"Greenview Ave & Diversey Pkwy","Chicago",41.932595,-87.665939,15,"9/20/2013 15:20",NA,298,302,171.831208053691,34.9198606271777,0.856643356643357,0.956375838926175
"298",320,"Loomis St & Lexington St","Chicago",41.872187,-87.661501,19,"9/20/2013 16:26",NA,1385,1177,166.684789410349,29.1555392516507,0.842993396918562,0.984115523465704
"299",321,"Wabash Ave & 9th St","Chicago",41.870769,-87.625734,19,"9/20/2013 16:37",NA,1274,1225,184.863971742543,40.2719665271966,0.815062761506276,0.937990580847724
"300",322,"Kimbark Ave & 53rd St","Chicago",41.799568,-87.594747,19,"9/20/2013 16:51",NA,873,965,167.66347842688,32.2887323943662,0.780516431924883,0.974799541809851
"301",323,"Sheridan Rd & Lawrence Ave","Chicago",41.969517,-87.654691,15,"9/21/2013 11:30",NA,252,236,173.897222222222,35.5368852459017,0.651639344262295,0.968253968253968
"302",324,"Stockton Dr & Wrightwood Ave","Chicago",41.93132,-87.638742,15,"9/21/2013 11:55",NA,583,640,146.242938822184,34.5907258064517,0.673387096774194,0.850771869639794
"303",325,"Clark St & Winnemac Ave","Chicago",41.973345,-87.667682,19,"9/23/2013 9:59",NA,817,838,173.609139126887,36.4495641344956,0.785536159600998,0.982864137086903
"304",326,"Clark St & Leland Ave","Chicago",41.967096,-87.667429,19,"9/23/2013 15:02",NA,422,390,175.646050552923,35.5254237288136,0.813559322033898,0.97867298578199
"305",327,"Sheffield Ave & Webster Ave","Chicago",41.92154,-87.653818,19,"9/23/2013 15:05",NA,1029,1129,160.535746679624,33.7035532994923,0.766260162601626,0.956268221574344
"306",328,"Ellis Ave & 58th St","Chicago",41.788746,-87.601334,19,"9/25/2013 9:38",NA,757,765,163.591963892558,33.6849865951742,0.759731543624161,0.985468956406869
"307",329,"Lake Shore Dr & Diversey Pkwy","Chicago",41.932684,-87.63625,15,"9/25/2013 9:49",NA,568,584,134.223620892019,38.5126705653022,0.736842105263158,0.903169014084507
"308",330,"Lincoln Ave & Addison St","Chicago",41.946176,-87.673308,19,"9/25/2013 13:25",NA,213,209,128.683881064163,36.7177033492824,0.794258373205742,0.981220657276995
"309",331,"Halsted St & Blackhawk St (*)","Chicago",41.908537,-87.648627,20,"9/25/2013 13:55",NA,1203,1401,199.403588251593,35.140703517588,0.73785594639866,0.990856192851205
"310",332,"Halsted St & Diversey Pkwy","Chicago",41.933666,-87.648959,19,"9/25/2013 15:35",NA,758,772,161.210400175901,36.8281461434372,0.814614343707713,0.974934036939314
"311",333,"Ashland Ave & Blackhawk St","Chicago",41.907066,-87.667252,15,"9/25/2013 16:37",NA,688,667,167.494864341085,31.6838124054464,0.885022692889561,0.960755813953488
"312",334,"Lake Shore Dr & Belmont Ave","Chicago",41.940775,-87.639192,19,"9/26/2013 10:16",NA,933,1006,114.289103251161,34.6061349693252,0.695705521472393,0.873526259378349
"313",335,"Calumet Ave & 35th St","Chicago",41.831379,-87.618034,15,"9/26/2013 10:33",NA,121,100,163.328512396694,31.6810344827586,0.896551724137931,0.958677685950413
"314",336,"Cottage Grove Ave & 47th St","Chicago",41.809855,-87.606755,15,"9/26/2013 11:04",NA,74,65,189.802477477477,32,0.901408450704225,0.959459459459459
"315",337,"Clark St & Chicago Ave","Chicago",41.896544,-87.630931,19,"9/26/2013 15:53",NA,1054,1053,166.835610373182,35.0793489318412,0.853211009174312,0.928842504743833
"316",338,"Calumet Ave & 18th St","Chicago",41.857611,-87.619407,15,"9/26/2013 15:59",NA,662,770,152.795594159114,41.5819935691318,0.815112540192926,0.939577039274924
"317",339,"Emerald Ave & 31st St","Chicago",41.838198,-87.645143,11,"9/27/2013 12:26",NA,272,298,162.766850490196,32.3483146067415,0.808988764044944,0.981617647058823
"318",340,"Clark St & Wrightwood Ave","Chicago",41.929546,-87.643118,15,"10/1/2013 11:35",NA,1560,1618,149.281164529915,32.6830564784052,0.707641196013289,0.96474358974359
"319",341,"Adler Planetarium","Chicago",41.866095,-87.607267,39,"10/3/2013 12:01",NA,990,878,129.836144781145,39.7239709443099,0.796116504854369,0.414141414141414
"320",342,"Wolcott Ave & Polk St","Chicago",41.871262,-87.673688,15,"10/3/2013 15:04",NA,1631,1367,193.616768853464,37.352095059412,0.78643216080402,0.980380134886573
"321",343,"Racine Ave & Wrightwood Ave","Chicago",41.928887,-87.658971,15,"10/3/2013 15:54",NA,621,503,144.10040257649,32.9001636661212,0.667757774140753,0.98389694041868
"322",344,"Ravenswood Ave & Lawrence Ave","Chicago",41.96909,-87.674237,39,"10/3/2013 16:21",NA,1953,1846,183.935739887353,38.6554578375583,0.776915113871636,0.989759344598054
"323",345,"Lake Park Ave & 56th St","Chicago",41.793242,-87.587782,19,"10/4/2013 11:37",NA,596,654,161.610262863535,43.693520140105,0.819614711033275,0.958053691275168
"324",346,"Ada St & Washington Blvd","Chicago",41.88283,-87.661206,15,"10/4/2013 14:37",NA,854,838,193.605132708821,38.0375757575757,0.83373786407767,0.966042154566745
"325",347,"Ashland Ave & Grace St","Chicago",41.950687,-87.6687,15,"10/4/2013 16:06",NA,568,518,159.631748826291,37.6160877513712,0.692870201096892,0.961267605633803
"326",348,"California Ave & 21st St","Chicago",41.854016,-87.695445,15,"10/9/2013 16:13",NA,58,96,150.788793103448,41.9642857142858,0.696428571428571,0.96551724137931
"327",349,"Halsted St & Wrightwood Ave","Chicago",41.929143,-87.649077,15,"10/10/2013 12:40",NA,1083,1055,127.003678054786,32.8767772511849,0.748815165876777,0.974145891043398
"328",350,"Ashland Ave & Chicago Ave","Chicago",41.895966,-87.667747,15,"10/10/2013 14:22",NA,805,900,207.491469979296,32.104786545925,0.798188874514877,0.960248447204969
"329",351,"Cottage Grove Ave & 51st St","Chicago",41.803038,-87.606615,15,"10/10/2013 16:56",NA,52,65,149.827564102564,31.9148936170213,0.595744680851064,0.903846153846154
"330",352,"Jeffery Blvd & 67th St","Chicago",41.77351755,-87.57714283,15,"10/28/2013 13:24",NA,54,47,182.161419753086,40.3076923076924,0.0961538461538462,0.962962962962963
"331",353,"Clark St & Touhy Ave","Chicago",42.01256012,-87.67436712,15,"12/31/2013 14:08",NA,84,83,152.32123015873,36.9876543209878,0.938271604938272,0.964285714285714
"332",354,"Sheridan Rd & Greenleaf Ave","Chicago",42.01058656,-87.66241209,15,"12/31/2013 14:09",NA,175,172,128.774761904762,40.6894409937888,0.583850931677019,0.92
"333",355,"South Shore Dr & 67th St","Chicago",41.773643,-87.567514,19,"1/9/2014 15:11",NA,19,17,79.1368421052632,41.2,0.466666666666667,0.789473684210526
"334",356,"Stony Island Ave & 71st St","Chicago",41.76649294,-87.58646088,11,"3/12/2014 12:27",NA,47,50,205.047163120567,37.0652173913043,0.717391304347826,0.978723404255319
"335",359,"Larrabee St & Division St","Chicago",41.90348607,-87.64335349,23,"4/22/2014 15:54",NA,1133,1161,187.445601647543,34.7329079307201,0.797629899726527,0.968225948808473
"336",364,"Larrabee St & Oak St","Chicago",41.90021949,-87.64298547,19,"1/30/2015 12:38",NA,1409,1453,205.773089661699,34.1492857142857,0.776428571428571,0.99361249112846
"337",365,"Halsted St & North Branch St","Chicago",41.89936844,-87.64847988,15,"1/30/2015 12:40",NA,240,204,170.947986111111,36.9295154185022,0.854625550660793,0.945833333333333
"338",366,"Loomis St & Archer Ave","Chicago",41.84163254,-87.65743495,15,"1/30/2015 12:43",NA,125,139,55.5730666666667,36.2096774193549,0.935483870967742,0.992
"339",367,"Racine Ave & 35th St","Chicago",41.83069611,-87.65597591,15,"1/30/2015 12:47",NA,38,45,156.683333333333,47.0882352941176,0.823529411764706,0.894736842105263
"340",368,"Ashland Ave & Archer Ave","Chicago",41.83920868,-87.66560986,15,"1/30/2015 12:51",NA,46,27,204.007608695652,36.5111111111112,0.911111111111111,0.978260869565217
"341",369,"Wood St & 35th St","Chicago",41.83010465,-87.67029831,11,"1/30/2015 12:53",NA,30,27,161.743333333333,43.25,0.75,0.8
"342",370,"Calumet Ave & 21st St","Chicago",41.85418425,-87.61915374,15,"1/30/2015 13:02",NA,182,229,149.442948717949,39.9928571428572,0.678571428571429,0.769230769230769
"343",373,"Kedzie Ave & Chicago Ave","Chicago",41.8954653,-87.70612788,15,"1/30/2015 13:57",NA,57,87,167.305555555556,34.9230769230769,0.673076923076923,0.912280701754386
"344",374,"Western Ave & Walton St","Chicago",41.89841769,-87.68659602,19,"1/30/2015 13:58",NA,661,571,148.296772566818,36.5298742138364,0.811320754716981,0.962178517397882
"345",375,"Sacramento Blvd & Franklin Blvd","Chicago",41.889727,-87.70103,11,"1/30/2015 13:58",NA,24,19,129.936805555556,33.4583333333333,0.541666666666667,1
"346",376,"Artesian Ave & Hubbard St","Chicago",41.88949182,-87.68821936,35,"1/30/2015 13:59",NA,721,454,196.629241793805,41.4793741109531,0.943100995732575,0.9750346740638
"347",377,"Kedzie Ave & Lake St","Chicago",41.88460329,-87.70630374,19,"1/30/2015 13:59",NA,65,59,167.232307692308,42.8688524590164,0.80327868852459,0.938461538461538
"348",378,"California Ave & Lake St","Chicago",41.88445396,-87.69629814,15,"1/30/2015 14:00",NA,71,86,119.342253521127,33.4264705882354,0.529411764705882,0.957746478873239
"349",381,"Western Ave & Monroe St","Chicago",41.87978771,-87.68611281,15,"1/30/2015 14:22",NA,128,127,108.101041666667,34.3548387096773,0.935483870967742,0.96875
"350",382,"Western Ave & Congress Pkwy","Chicago",41.87474885,-87.68644528,19,"1/30/2015 14:25",NA,125,115,179.078933333333,41.8839285714287,0.8125,0.896
"351",383,"Ashland Ave & Harrison St","Chicago",41.874293,-87.667284,23,"1/30/2015 14:28",NA,676,624,218.530719921105,37.7405159332322,0.487101669195751,0.974852071005917
"352",384,"Halsted St & 51st St","Chicago",41.80183164,-87.6452139,11,"1/30/2015 14:37",NA,3,1,45.5777777777778,42,1,0.333333333333333
"353",385,"Princeton Ave & Garfield Blvd","Chicago",41.794982,-87.633124,11,"1/30/2015 14:37",NA,77,32,275.357359307359,42.7466666666667,0.88,0.974025974025974
"354",386,"Halsted St & 56th St","Chicago",41.79292965,-87.64499006,11,"1/30/2015 14:38",NA,3,6,159.044444444444,48,1,1
"355",388,"Halsted St & 63rd St","Chicago",41.77938114,-87.64462081,15,"1/30/2015 14:41",NA,17,17,217.673529411765,41.8,0.666666666666667,0.882352941176471
"356",390,"Wentworth Ave & 63rd St","Chicago",41.78007963,-87.62974631,11,"1/30/2015 14:42",NA,11,7,230.9,32.0999999999999,0.8,0.909090909090909
"357",391,"Halsted St & 69th St","Chicago",41.76906172,-87.64461358,11,"1/30/2015 14:42",NA,5,5,100.816666666667,37,1,1
"358",392,"Perry Ave & 69th St","Chicago",41.76929309,-87.62819593,11,"1/30/2015 14:43",NA,3,2,231.761111111111,22,0,1
"359",393,"Calumet Ave & 71st St","Chicago",41.76550801,-87.61691793,11,"1/30/2015 14:45",NA,6,4,77.5111111111111,21.3333333333333,0.666666666666667,0.5
"360",394,"Clark St & 9th St (AMLI)","Chicago",41.870816,-87.631246,15,"1/30/2015 15:11",NA,503,560,191.044963552021,36.5409836065573,0.901639344262295,0.970178926441352
"361",395,"Jeffery Blvd & 76th St","Chicago",41.75712007,-87.57583936,11,"1/30/2015 17:30",NA,2,3,98.0333333333333,38,1,1
"363",397,"Saginaw Ave & Exchange Ave","Chicago",41.75874584,-87.56011478,11,"1/30/2015 17:31",NA,25,24,115.856666666667,55,1,1
"365",399,"South Shore Dr & 74th St","Chicago",41.76218896,-87.55927465,11,"1/30/2015 17:31",NA,92,92,75.6876811594203,54.8461538461538,1,0.989130434782609
"366",400,"Cottage Grove Ave & 71st St","Chicago",41.76571904,-87.60495971,11,"1/30/2015 17:32",NA,5,5,78.8033333333333,55.5,1,0.8
"367",401,"Shields Ave & 28th Pl","Chicago",41.842733,-87.635491,11,"1/30/2015 17:37",NA,115,137,164.38884057971,31.1652173913044,0.834782608695652,1
"368",402,"Shields Ave & 31st St","Chicago",41.838464,-87.635406,15,"1/30/2015 17:37",NA,161,166,163.596997929607,28.9622641509434,0.742138364779874,0.987577639751553
"369",403,"Wentworth Ave & 33rd St","Chicago",41.83452989,-87.63182298,15,"1/30/2015 17:37",NA,154,168,165.772186147186,29.5838926174497,0.906040268456376,0.967532467532468
"370",405,"Wentworth Ave & 35th St","Chicago",41.830777,-87.632504,15,"1/30/2015 17:38",NA,98,87,140.686394557823,36.2127659574469,0.904255319148936,0.959183673469388
"371",406,"Lake Park Ave & 35th St","Chicago",41.83127424,-87.60879919,19,"1/30/2015 17:38",NA,89,88,135.520786516854,43.2179487179487,0.730769230769231,0.876404494382023
"372",407,"State St & Pershing Rd","Chicago",41.82301524,-87.62656802,11,"1/30/2015 17:38",NA,1,4,16.2666666666667,27,1,1
"373",408,"Union Ave & Root St","Chicago",41.819102,-87.643278,11,"1/30/2015 17:39",NA,64,53,235.865885416667,29.8730158730159,0.984126984126984,0.984375
"374",409,"Shields Ave & 43rd St","Chicago",41.81620768,-87.63481935,11,"1/30/2015 17:39",NA,3,1,178.683333333333,40.5,0.5,0.666666666666667
"375",410,"Prairie Ave & 43rd St","Chicago",41.81665889,-87.61941246,15,"1/30/2015 17:39",NA,18,25,147.227777777778,37.4444444444443,0.941176470588235,1
"376",411,"Halsted St & 47th Pl","Chicago",41.80813391,-87.64561655,11,"1/30/2015 17:40",NA,47,60,139.667730496454,46.391304347826,0.978260869565217,0.978723404255319
"377",412,"Princeton Ave & 47th St","Chicago",41.80931771,-87.63344929,11,"1/30/2015 17:40",NA,43,25,183.367829457364,50.3255813953488,1,1
"378",413,"Woodlawn Ave & Lake Park Ave","Chicago",41.81409271,-87.59700515,15,"1/30/2015 17:40",NA,82,85,195.912804878049,47.7341772151899,0.922077922077922,0.963414634146341
"379",414,"Canal St & Taylor St","Chicago",41.870257,-87.639474,15,"1/30/2015 17:40",NA,1158,1063,176.885189982729,39.4307553956835,0.881294964028777,0.960276338514681
"380",415,"Calumet Ave & 51st St","Chicago",41.80229465,-87.61805358,15,"1/30/2015 17:41",NA,31,35,174.931182795699,32.8928571428571,0.892857142857143,0.903225806451613
"381",416,"Dorchester Ave & 49th St","Chicago",41.805772,-87.592464,15,"1/30/2015 17:42",NA,83,108,201.01546184739,39.9746835443038,0.417721518987342,0.951807228915663
"382",417,"Cornell Ave & Hyde Park Blvd","Chicago",41.802406,-87.586924,19,"1/30/2015 17:42",NA,523,465,197.506022944551,33.058585858586,0.730769230769231,0.946462715105163
"383",418,"Ellis Ave & 53rd St","Chicago",41.79933626,-87.60095811,11,"1/30/2015 17:42",NA,526,589,145.696609632446,28.6739562624255,0.588469184890656,0.956273764258555
"384",419,"Lake Park Ave & 53rd St","Chicago",41.79949429,-87.5864499,15,"1/30/2015 17:42",NA,322,372,175.996221532091,38.6061643835617,0.764925373134328,0.906832298136646
"385",420,"Ellis Ave & 55th St","Chicago",41.79430062,-87.60144977,19,"1/30/2015 17:43",NA,836,856,152.282635566188,29.8388278388279,0.645909645909646,0.979665071770335
"386",421,"MLK Jr Dr & 56th St (*)","Chicago",41.79342946,-87.61585326,12,"1/30/2015 17:43",NA,28,16,175.279166666667,37.2692307692307,0.807692307692308,0.928571428571429
"387",422,"DuSable Museum","Chicago",41.79156801,-87.60785218,15,"1/30/2015 17:43",NA,77,68,121.620995670996,30.5,0.847222222222222,0.935064935064935
"388",423,"University Ave & 57th St","Chicago",41.791478,-87.599861,27,"1/30/2015 17:44",NA,1549,1566,173.324876264257,30.9074567243674,0.794255177020708,0.969657843770174
"389",424,"Museum of Science and Industry","Chicago",41.79172821,-87.58394501,27,"1/30/2015 17:44",NA,164,173,141.546646341463,40.9705882352941,0.661764705882353,0.414634146341463
"390",425,"Harper Ave & 59th St","Chicago",41.78794281,-87.58831517,15,"1/30/2015 17:44",NA,355,293,169.827136150235,40.3988269794722,0.873900293255132,0.96056338028169
"391",426,"Ellis Ave & 60th St","Chicago",41.78509715,-87.60107276,19,"1/30/2015 17:45",NA,1012,882,159.600082345191,25.0801644398766,0.659815005138746,0.961462450592885
"392",427,"Cottage Grove Ave & 63rd St","Chicago",41.78059901,-87.60611239,19,"1/30/2015 17:45",NA,120,102,175.405694444444,30.4453781512605,0.991596638655462,0.991666666666667
"393",428,"Dorchester Ave & 63rd St","Chicago",41.78040565,-87.59141599,15,"1/30/2015 17:45",NA,32,38,192.382291666667,44.04,0.916666666666667,0.78125
"394",429,"Cottage Grove Ave & 67th St","Chicago",41.77372095,-87.60563486,11,"1/30/2015 17:46",NA,18,27,153.042592592593,38.6875,0.875,0.888888888888889
"395",430,"MLK Jr Dr & 63rd St","Chicago",41.78008064,-87.61594286,15,"1/30/2015 17:46",NA,11,8,194.878787878788,27.875,1,0.727272727272727
"396",431,"Eberhart Ave & 61st St","Chicago",41.78414169,-87.61330783,11,"1/30/2015 17:46",NA,12,14,178.622222222222,35.8333333333333,1,1
"397",432,"Clark St & Lunt Ave","Chicago",42.009074,-87.67419,19,"2/2/2015 11:32",NA,475,511,165.985859649123,42.4522292993631,0.857749469214437,0.991578947368421
"398",433,"Kedzie Ave & Harrison St","Chicago",41.87359967,-87.70487075,11,"2/10/2015 11:47",NA,7,4,91.1119047619048,35,1,0.571428571428571
"399",434,"Ogden Ave & Roosevelt Rd","Chicago",41.86650148,-87.68469707,19,"2/10/2015 11:47",NA,162,206,192.31512345679,33.2327044025158,0.79874213836478,0.981481481481482
"400",435,"Kedzie Ave & Roosevelt Rd","Chicago",41.86649278,-87.70649618,15,"2/10/2015 11:48",NA,7,5,138.595238095238,45.8571428571429,0.714285714285714,1
"401",436,"Fairfield Ave & Roosevelt Rd","Chicago",41.866624,-87.694521,15,"2/10/2015 11:48",NA,45,40,38.0355555555556,45.3255813953488,0.976744186046512,0.955555555555556
"402",437,"Washtenaw Ave & Ogden Ave (*)","Chicago",41.861894,-87.693511,20,"2/10/2015 11:48",NA,98,122,148.156802721088,36.4639175257732,0.793814432989691,0.989795918367347
"403",438,"Central Park Ave & Ogden Ave","Chicago",41.85420431,-87.71540584,15,"2/10/2015 11:49",NA,30,21,142.461111111111,35.5357142857142,0.785714285714286,0.933333333333333
"404",439,"Kedzie Ave & 21st St","Chicago",41.85353363,-87.70507303,11,"2/10/2015 11:49",NA,74,46,159.591216216216,31.4166666666667,0.888888888888889,0.972972972972973
"405",440,"Lawndale Ave & 23rd St","Chicago",41.84988195,-87.71700039,11,"2/10/2015 11:49",NA,22,22,106.448484848485,35.6500000000001,1,0.909090909090909
"406",441,"Kedzie Ave & 24th St","Chicago",41.84819094,-87.70541375,11,"2/10/2015 11:50",NA,9,6,129.105555555556,45.5555555555557,1,1
"407",442,"California Ave & 23rd Pl","Chicago",41.84910969,-87.69513981,15,"2/10/2015 11:50",NA,48,66,106.765972222222,42.6458333333333,0.75,1
"408",443,"Millard Ave & 26th St","Chicago",41.84456685,-87.71591031,11,"2/10/2015 11:50",NA,42,49,147.395238095238,41.75,0.7,0.952380952380952
"409",444,"Albany Ave & 26th St","Chicago",41.84447501,-87.70201301,11,"2/10/2015 11:50",NA,21,25,154.384920634921,37.0625,1,0.761904761904762
"410",445,"California Ave & 26th St","Chicago",41.84404003,-87.69529592,11,"2/10/2015 11:51",NA,49,35,127.858503401361,37.3265306122448,0.877551020408163,1
"411",446,"Western Ave & 28th St","Chicago",41.84151771,-87.68513144,11,"2/10/2015 11:51",NA,11,4,146.706060606061,45,1,0.909090909090909
"412",447,"Glenwood Ave & Morse Ave","Chicago",42.00797192,-87.66550239,15,"2/10/2015 12:00",NA,545,562,150.610703363914,43.72,0.820952380952381,0.963302752293578
"413",448,"Warren Park East","Chicago",42.00454962,-87.68066615,15,"2/10/2015 14:02",NA,38,49,234.963157894737,50.2,0.314285714285714,0.921052631578947
"414",449,"Clark St & Columbia Ave","Chicago",42.00445063,-87.6724024,15,"2/10/2015 14:02",NA,347,277,137.031316042267,37.4792899408285,0.804733727810651,0.974063400576369
"415",450,"Warren Park West","Chicago",42.001785,-87.688829,15,"2/10/2015 14:03",NA,32,49,182.371875,35.3333333333333,0.851851851851852,0.84375
"416",451,"Sheridan Rd & Loyola Ave","Chicago",42.00104378,-87.66119824,15,"2/10/2015 14:03",NA,426,461,167.860211267606,39.440097799511,0.791666666666667,0.960093896713615
"417",452,"Western Ave & Granville Ave","Chicago",41.99416137,-87.68943828,15,"2/10/2015 14:03",NA,56,65,181.778273809524,38.6964285714287,0.767857142857143,1
"418",453,"Clark St & Schreiber Ave","Chicago",41.99925182,-87.67137734,15,"2/10/2015 14:03",NA,168,184,165.344543650794,38.506329113924,0.715189873417722,0.94047619047619
"419",454,"Broadway & Granville Ave","Chicago",41.99477969,-87.66028453,15,"2/10/2015 14:04",NA,357,405,174.985294117647,41.4537313432836,0.748502994011976,0.938375350140056
"420",455,"Maplewood Ave & Peterson Ave","Chicago",41.99023603,-87.69336964,15,"2/10/2015 14:04",NA,35,32,192.668571428571,39.3235294117646,0.382352941176471,0.971428571428571
"421",456,"2112 W Peterson Ave","Chicago",41.991178,-87.683593,15,"2/10/2015 14:04",NA,72,64,214.633101851852,47.5735294117646,0.602941176470588,0.944444444444444
"422",457,"Clark St & Elmdale Ave","Chicago",41.99089375,-87.6695834,19,"2/10/2015 14:04",NA,253,255,170.588866930171,39.9638554216867,0.895582329317269,0.984189723320158
"423",458,"Broadway & Thorndale Ave","Chicago",41.98974251,-87.66014062,19,"2/10/2015 14:05",NA,395,432,160.175189873418,40.4617414248021,0.796296296296296,0.959493670886076
"424",459,"Lakefront Trail & Bryn Mawr Ave","Chicago",41.9840367,-87.65231047,19,"2/10/2015 14:05",NA,386,390,105.41286701209,38.9316546762591,0.741007194244604,0.72020725388601
"425",460,"Clark St & Bryn Mawr Ave","Chicago",41.983593,-87.669154,15,"2/10/2015 14:05",NA,418,439,171.15211323764,39.3691931540343,0.657701711491443,0.978468899521531
"426",461,"Broadway & Ridge Ave","Chicago",41.98404461,-87.66027383,15,"2/10/2015 14:05",NA,335,411,167.61815920398,36.5913312693499,0.804953560371517,0.964179104477612
"427",462,"Ravenswood Ave & Balmoral Ave","Chicago",41.97977022,-87.67581473,15,"2/10/2015 14:06",NA,362,408,197.913121546961,38.5391061452515,0.776536312849162,0.988950276243094
"428",463,"Clark St & Berwyn Ave","Chicago",41.97799665,-87.6680471,19,"2/10/2015 14:06",NA,813,872,163.203505535055,36.5390428211588,0.751889168765743,0.976629766297663
"429",464,"Damen Ave & Foster Ave","Chicago",41.9756148,-87.67945904,15,"2/10/2015 14:06",NA,405,440,172.282469135802,40.4376590330789,0.804071246819338,0.97037037037037
"430",465,"Marine Dr & Ainslie St","Chicago",41.9716,-87.650154,23,"2/10/2015 14:06",NA,219,238,141.499847792998,39.8397790055249,0.762430939226519,0.82648401826484
"431",466,"Ridge Blvd & Touhy Ave","Chicago",42.01213228,-87.68291264,15,"2/10/2015 14:11",NA,69,73,175.057246376812,35.2727272727273,0.696969696969697,0.956521739130435
"432",467,"Western Ave & Lunt Ave","Chicago",42.0085944,-87.69049224,15,"2/10/2015 14:11",NA,137,145,175.645620437956,40.1240875912408,0.627737226277372,1
"433",468,"Budlong Woods Library","Chicago",41.98366471,-87.69642256,15,"2/10/2015 14:12",NA,56,88,248.856547619048,40.8,0.945454545454545,0.982142857142857
"434",469,"St. Louis Ave & Balmoral Ave","Chicago",41.98039423,-87.71611496,15,"2/10/2015 14:36",NA,113,74,155.127728613569,29.8454545454545,0.890909090909091,0.973451327433628
"435",470,"Kedzie Ave & Foster Ave","Chicago",41.975672,-87.709261,15,"2/10/2015 14:36",NA,133,147,195.957393483709,38.5999999999999,0.892307692307692,0.969924812030075
"436",471,"Francisco Ave & Foster Ave","Chicago",41.97563273,-87.70141944,15,"2/10/2015 14:36",NA,178,205,170.699906367041,47.3735632183907,0.683908045977011,0.97752808988764
"437",472,"Lincoln Ave & Winona St","Chicago",41.9749113,-87.69250256,15,"2/10/2015 14:36",NA,158,155,171.484282700422,37.3725490196077,0.875816993464052,0.968354430379747
"438",474,"Christiana Ave & Lawrence Ave","Chicago",41.96835449,-87.71183067,15,"2/10/2015 14:37",NA,109,136,180.763914373089,39.4368932038835,0.757281553398058,0.944954128440367
"439",475,"Washtenaw Ave & Lawrence Ave","Chicago",41.968987,-87.696027,15,"2/10/2015 14:38",NA,220,230,152.211363636364,37.8457943925234,0.822429906542056,0.972727272727273
"440",476,"Kedzie Ave & Leland Ave","Chicago",41.96668636,-87.70805198,15,"2/10/2015 14:38",NA,162,125,197.165534979424,38.874213836478,0.691823899371069,0.981481481481482
"441",477,"Manor Ave & Leland Ave","Chicago",41.96631753,-87.70108268,11,"2/10/2015 14:38",NA,84,82,189.47619047619,37.4109589041095,0.849315068493151,0.869047619047619
"442",478,"Rockwell St & Eastwood Ave","Chicago",41.96590014,-87.69363849,15,"2/10/2015 14:38",NA,347,393,133.032468780019,41.8735294117646,0.75,0.979827089337176
"443",479,"Drake Ave & Montrose Ave","Chicago",41.96115408,-87.71656907,15,"2/10/2015 14:38",NA,136,146,197.097549019608,44.0833333333333,0.818181818181818,0.970588235294118
"444",480,"Albany Ave & Montrose Ave","Chicago",41.961041,-87.705866,15,"2/10/2015 14:39",NA,72,73,206.516435185185,33.5999999999999,0.914285714285714,0.972222222222222
"445",481,"California Ave & Montrose Ave","Chicago",41.961068,-87.695439,15,"2/10/2015 14:39",NA,98,159,167.90612244898,38.8111111111111,0.633333333333333,0.918367346938776
"446",482,"Campbell Ave & Montrose Ave","Chicago",41.96152593,-87.69116504,15,"2/10/2015 14:39",NA,376,426,157.187234042553,37.5495978552278,0.81769436997319,0.992021276595745
"447",483,"Avondale Ave & Irving Park Rd","Chicago",41.953393,-87.732002,19,"2/10/2015 14:39",NA,154,171,169.543614718615,35.081081081081,0.601351351351351,0.961038961038961
"448",484,"Monticello Ave & Irving Park Rd","Chicago",41.95400484,-87.71912818,15,"2/10/2015 14:39",NA,100,92,138.8665,32.8842105263159,0.578947368421053,0.95
"449",485,"Sawyer Ave & Irving Park Rd","Chicago",41.95358618,-87.7093108,15,"2/10/2015 14:40",NA,91,112,119.200366300366,40.6781609195402,0.816091954022989,0.956043956043956
"450",486,"Oakley Ave & Irving Park Rd","Chicago",41.95434085,-87.68607962,15,"2/10/2015 14:40",NA,248,232,150.525268817204,40.330612244898,0.759183673469388,0.987903225806452
"451",487,"California Ave & Byron St","Chicago",41.95216219,-87.69805111,19,"2/10/2015 14:40",NA,138,146,168.007246376812,42.0530303030303,0.931818181818182,0.956521739130435
"452",488,"Pulaski Rd & Eddy St","Chicago",41.94563644,-87.72773681,11,"2/10/2015 14:40",NA,31,70,140.89247311828,33.0666666666666,0.766666666666667,0.967741935483871
"453",489,"Drake Ave & Addison St","Chicago",41.947326,-87.717582,15,"2/10/2015 14:41",NA,223,214,161.626233183856,43.4885844748858,0.908675799086758,0.982062780269058
"454",490,"Troy St & Elston Ave","Chicago",41.94524357,-87.7066499,15,"2/10/2015 14:41",NA,209,244,153.323684210526,36.2435233160622,0.782383419689119,0.923444976076555
"455",491,"Talman Ave & Addison St","Chicago",41.94663583,-87.69461476,15,"2/10/2015 14:41",NA,251,282,181.136586985392,33.5384615384614,0.874493927125506,0.98406374501992
"456",492,"Leavitt St & Addison St","Chicago",41.946655,-87.683359,15,"2/10/2015 14:41",NA,125,137,154.607733333333,34.5409836065573,0.80327868852459,0.976
"457",493,"Oakley Ave & Roscoe St","Chicago",41.942916,-87.685801,15,"2/10/2015 14:42",NA,390,386,167.243931623932,46.3453608247423,0.75,0.994871794871795
"458",494,"Kedzie Ave & Bryn Mawr Ave","Chicago",41.98239708,-87.70892252,15,"2/10/2015 14:42",NA,68,75,171.124019607843,40.3484848484848,0.606060606060606,0.970588235294118
"459",495,"Keystone Ave & Montrose Ave","Chicago",41.96110802,-87.7289701,15,"2/10/2015 14:42",NA,47,47,174.887943262411,42.2894736842106,0.842105263157895,0.808510638297872
"460",496,"Avers Ave & Belmont Ave","Chicago",41.939408,-87.723574,11,"2/10/2015 14:47",NA,61,73,125.607923497268,35.1636363636364,0.854545454545454,0.901639344262295
"461",497,"Kimball Ave & Belmont Ave","Chicago",41.939398,-87.711561,23,"2/10/2015 14:47",NA,146,122,162.593378995434,34.6940298507463,0.835820895522388,0.917808219178082
"462",498,"California Ave & Fletcher St","Chicago",41.93842879,-87.69800776,19,"2/10/2015 14:47",NA,148,193,175.596734234234,35.5422535211267,0.78169014084507,0.959459459459459
"463",499,"Kosciuszko Park","Chicago",41.93058537,-87.72377736,15,"2/10/2015 14:48",NA,152,171,159.30548245614,32.5743243243244,0.858108108108108,0.973684210526316
"464",500,"Central Park Ave & Elbridge Ave","Chicago",41.93533728,-87.71688929,15,"2/10/2015 14:48",NA,108,116,134.361882716049,33.5799999999999,0.78,0.925925925925926
"465",501,"Richmond St & Diversey Ave","Chicago",41.93190197,-87.70119513,15,"2/10/2015 14:48",NA,199,182,153.099078726968,29.5,0.484375,0.964824120603015
"466",502,"California Ave & Altgeld St","Chicago",41.92669,-87.697668,15,"2/10/2015 14:48",NA,278,282,166.745623501199,32.2201492537313,0.876865671641791,0.964028776978417
"467",503,"Drake Ave & Fullerton Ave","Chicago",41.92439882,-87.71544104,15,"2/10/2015 14:49",NA,343,401,153.435714285714,33.5575221238937,0.728613569321534,0.988338192419825
"468",504,"Campbell Ave & Fullerton Ave","Chicago",41.92463247,-87.68930701,15,"2/10/2015 14:49",NA,325,352,127.178564102564,33.7452229299363,0.837579617834395,0.966153846153846
"469",505,"Winchester Ave & Elston Ave","Chicago",41.92409085,-87.67646007,15,"2/10/2015 14:49",NA,235,238,172.852411347518,36.6837606837607,0.782051282051282,0.995744680851064
"470",506,"Spaulding Ave & Armitage Ave","Chicago",41.91718375,-87.71035665,15,"2/10/2015 14:50",NA,473,448,163.288090204369,37.6462585034014,0.8140589569161,0.932346723044397
"471",507,"Humboldt Blvd & Armitage Ave","Chicago",41.91751339,-87.70180896,19,"2/10/2015 14:50",NA,425,349,177.712392156863,34.4303178484108,0.638141809290954,0.962352941176471
"472",508,"Central Park Ave & North Ave","Chicago",41.90965688,-87.71663195,15,"2/10/2015 14:50",NA,58,54,163.564655172414,32.4565217391305,0.91304347826087,0.793103448275862
"473",509,"Troy St & North Ave","Chicago",41.9097693,-87.70528049,15,"2/10/2015 14:50",NA,148,138,176.03795045045,38.05,0.407142857142857,0.945945945945946
"474",510,"Spaulding Ave & Division St","Chicago",41.90270659,-87.70921957,15,"2/10/2015 14:51",NA,110,108,188.687272727273,37.0747663551401,0.570093457943925,0.972727272727273
"475",511,"Albany Ave & Bloomingdale Ave","Chicago",41.91402671,-87.70512646,15,"2/10/2015 14:51",NA,355,306,178.342723004695,36.7034700315457,0.580441640378549,0.892957746478873
"476",514,"Ridge Blvd & Howard St","Chicago",42.019276,-87.68452,15,"5/12/2016 17:35",NA,105,102,174.179682539683,52.0776699029127,0.456310679611651,0.980952380952381
"477",515,"Paulina St & Howard St","Chicago",42.019159,-87.673573,23,"5/12/2016 17:36",NA,263,306,174.910836501901,38.2183908045977,0.762452107279693,0.992395437262357
"478",517,"Clark St & Jarvis Ave","Chicago",42.015963,-87.675005,15,"5/12/2016 17:38",NA,80,84,151.989583333333,42.1392405063291,0.822784810126582,0.9875
"479",518,"Conservatory Dr & Lake St","Chicago",41.885502,-87.716866,15,"5/24/2016 15:32",NA,33,32,109.946464646465,35.4444444444443,0.740740740740741,0.818181818181818
"480",519,"Wolcott Ave & Fargo Ave","Chicago",42.016977,-87.677725,11,"5/24/2016 15:40",NA,16,39,165.278125,45.3125,0.8125,1
"481",520,"Greenview Ave & Jarvis Ave","Chicago",42.015962,-87.66857,23,"5/24/2016 15:41",NA,309,342,140.978425026969,40.516447368421,0.539473684210526,0.983818770226537
"482",522,"Bosworth Ave & Howard St","Chicago",42.019537,-87.669563,15,"5/24/2016 15:43",NA,152,121,169.369627192982,40.96,0.46,0.986842105263158
"483",523,"Eastlake Ter & Rogers Ave","Chicago",42.021019,-87.665086,15,"5/24/2016 15:44",NA,288,244,174.918229166667,42.9893617021276,0.425531914893617,0.979166666666667
"484",524,"Austin Blvd & Chicago Ave","Chicago",41.894887,-87.774704,11,"5/24/2016 15:45",NA,6,21,212.983333333333,39,0.666666666666667,1
"485",525,"Glenwood Ave & Touhy Ave","Chicago",42.012701,-87.666058,15,"5/24/2016 15:47",NA,59,49,115.351694915254,39.3846153846155,0.352941176470588,0.88135593220339
"486",526,"Oakley Ave & Touhy Ave","Chicago",42.012342,-87.688243,15,"5/24/2016 15:48",NA,66,65,208.846212121212,35.4761904761904,0.968253968253968,0.954545454545455
"487",527,"Western Ave & Howard St","Chicago",42.018901,-87.690048,19,"5/24/2016 15:49",NA,63,76,178.818783068783,43.0819672131147,0.836065573770492,0.968253968253968
"488",528,"Pulaski Rd & Lake St","Chicago",41.885409,-87.726491,15,"5/24/2016 15:50",NA,13,13,69.8615384615385,42.9230769230769,0.923076923076923,1
"490",530,"Laramie Ave & Kinzie St","Chicago",41.887832,-87.755527,15,"5/27/2016 8:37",NA,4,5,221.9625,54,1,1
"491",531,"Central Ave & Lake St","Chicago",41.887664,-87.765469,15,"5/27/2016 8:38",NA,4,9,103.354166666667,55.5,0.75,1
"492",532,"Austin Blvd & Lake St","Chicago",41.887919,-87.774446,15,"5/27/2016 8:38",NA,50,51,124.312,36.4594594594594,0.783783783783784,0.74
"493",533,"Central Park Blvd & 5th Ave","Chicago",41.875679,-87.71547,15,"5/27/2016 8:40",NA,1,2,7.38333333333333,34,1,1
"494",534,"Pulaski Rd & Madison St","Chicago",41.880827,-87.726279,15,"5/27/2016 8:41",NA,2,1,134.658333333333,48.5,1,1
"495",535,"Pulaski Rd & Congress Pkwy","Chicago",41.874325,-87.725704,15,"5/27/2016 8:41",NA,1,3,10.1166666666667,45,1,1
"496",536,"Kostner Ave & Lake St","Chicago",41.885928,-87.73541,15,"5/27/2016 8:42",NA,6,6,120.527777777778,41.25,1,0.666666666666667
"498",538,"Cicero Ave & Flournoy St","Chicago",41.872131,-87.746619,15,"5/27/2016 8:43",NA,4,1,86.0708333333333,36.3333333333333,0.666666666666667,0.75
"499",539,"Cicero Ave & Quincy St","Chicago",41.877613,-87.745405,15,"5/27/2016 8:44",NA,2,2,122.841666666667,32,0,1
"501",541,"Central Ave & Harrison St","Chicago",41.872993,-87.764499,15,"5/27/2016 8:49",NA,3,3,126.811111111111,43,1,1
"503",543,"Laramie Ave & Gladys Ave","Chicago",41.875806,-87.755285,15,"5/27/2016 9:04",NA,1,2,309.683333333333,NA,NA,0
"504",544,"Austin Blvd & Madison St","Chicago",41.880281,-87.774453,15,"5/27/2016 9:05",NA,11,12,152.919696969697,34.4000000000001,0.9,0.909090909090909
"506",546,"Damen Ave & Pershing Rd","Chicago",41.823192,-87.676597,11,"5/27/2016 9:13",NA,14,16,218.560714285714,45.5454545454545,0.909090909090909,0.785714285714286
"507",547,"Ashland Ave & Pershing Rd","Chicago",41.823465,-87.665577,11,"5/27/2016 9:24",NA,6,18,40.1777777777778,46.1666666666667,1,1
"509",549,"Marshfield Ave & 44th St","Chicago",41.813996,-87.666589,11,"5/27/2016 9:25",NA,1,2,328.8,58,1,1
"510",550,"Central Ave & Chicago Ave","Chicago",41.894958,-87.764902,11,"5/27/2016 9:25",NA,4,6,209.495833333333,32.25,1,1
"511",551,"Hoyne Ave & 47th St","Chicago",41.808227,-87.67718,11,"5/27/2016 9:29",NA,10,8,144.983333333333,45.5999999999999,1,1
"512",552,"Ashland Ave & McDowell Ave","Chicago",41.80887,-87.66454,11,"5/27/2016 9:30",NA,54,22,102.648456790123,41.6600000000001,1,0.925925925925926
"513",553,"Elizabeth St & 47th St","Chicago",41.80839,-87.656526,11,"5/27/2016 10:03",NA,20,18,189.0775,48.5555555555557,0.833333333333333,0.9
"514",554,"Damen Ave & 51st St","Chicago",41.800908,-87.674684,11,"5/27/2016 10:15",NA,4,6,189.85,29.5,1,0.5
"516",556,"Throop St & 52nd St","Chicago",41.799659,-87.657195,11,"5/27/2016 10:48",NA,6,6,60.2277777777778,36,0.833333333333333,1
"517",557,"Seeley Ave & Garfield Blvd","Chicago",41.794087,-87.675478,11,"5/27/2016 10:48",NA,7,7,207.32619047619,28,1,0.857142857142857
"521",561,"Damen Ave & 59th St","Chicago",41.78602,-87.674167,11,"5/27/2016 10:50",NA,2,2,117.558333333333,NA,NA,0
"522",562,"Racine Ave & 61st St","Chicago",41.783189,-87.654372,11,"5/27/2016 10:51",NA,1,1,150.616666666667,57,1,1
"523",563,"Ashland Ave & 63rd St","Chicago",41.779374,-87.664843,15,"5/27/2016 10:51",NA,1,3,2.11666666666667,NA,NA,0
"526",566,"Ashland Ave & 69th St","Chicago",41.768726,-87.664069,11,"5/27/2016 10:53",NA,2,2,103.641666666667,34.5,0.5,1
"527",567,"May St & 69th St","Chicago",41.768938,-87.652934,11,"5/27/2016 10:53",NA,6,5,185.722222222222,40.2,1,0.833333333333333
"529",569,"Woodlawn Ave & 75th St","Chicago",41.75916,-87.595751,15,"5/27/2016 10:54",NA,4,3,116.8375,45.75,1,1
"530",570,"Evans Ave & 75th St","Chicago",41.758308,-87.606685,11,"5/27/2016 10:55",NA,126,125,136.807671957672,40.1214953271028,1,0.849206349206349
"531",571,"Vernon Ave & 75th St","Chicago",41.758361,-87.614138,11,"5/27/2016 10:55",NA,4,4,128.279166666667,37.5,1,0.5
"532",572,"State St & 76th St","Chicago",41.756971,-87.624621,11,"5/27/2016 10:56",NA,9,9,209.957407407407,30.7142857142858,0.714285714285714,0.777777777777778
"533",573,"State St & 79th St","Chicago",41.750794,-87.624424,15,"5/27/2016 10:56",NA,31,23,189.237096774194,37.1428571428571,0.928571428571429,0.903225806451613
"534",574,"Eberhart (Vernon) Ave & 79th St","Chicago",41.751345,-87.612568,11,"5/27/2016 10:57",NA,5,8,189.666666666667,21,1,0.8
"535",575,"Cottage Grove Ave & 78th St","Chicago",41.753174,-87.605026,11,"5/27/2016 10:57",NA,29,25,107.408045977011,39,1,0.758620689655172
"536",576,"Greenwood Ave & 79th St","Chicago",41.751294,-87.597552,15,"5/27/2016 11:29",NA,5,4,185.826666666667,42.5999999999999,0.2,1
"537",577,"Stony Island Ave & South Chicago Ave","Chicago",41.751173,-87.585337,11,"5/27/2016 11:31",NA,6,8,181.219444444444,33.2,0.6,0.833333333333333
"538",578,"Bennett Ave & 79th St","Chicago",41.751785,-87.578496,11,"5/27/2016 11:31",NA,1,1,9.41666666666667,29,0,1
"539",579,"Phillips Ave & 79th St","Chicago",41.75182,-87.565211,11,"5/27/2016 11:32",NA,7,3,170.02380952381,26.6666666666667,1,0.857142857142857
"540",580,"Exchange Ave & 79th St","Chicago",41.751731,-87.552812,15,"5/27/2016 11:32",NA,2,5,11.7583333333333,37,0.5,1
"543",583,"Stony Island Ave & 82nd St","Chicago",41.746559,-87.586005,11,"5/27/2016 11:34",NA,8,4,230.239583333333,42.2,0.6,0.625
"544",584,"Ellis Ave & 83rd St","Chicago",41.744123,-87.599034,15,"5/27/2016 11:35",NA,2,3,195.716666666667,42.5,0.5,1
"545",585,"Cottage Grove Ave & 83rd St","Chicago",41.744053,-87.604786,11,"5/27/2016 11:36",NA,8,15,157.141666666667,33.25,0.75,1
"546",586,"MLK Jr Dr & 83rd St","Chicago",41.743116,-87.6148,11,"5/27/2016 11:36",NA,18,23,200.328703703704,35,1,1
"547",587,"Wabash Ave & 83rd St","Chicago",41.743316,-87.622849,11,"5/27/2016 11:37",NA,10,9,202.235,37.7777777777778,0.777777777777778,0.9
"548",588,"South Chicago Ave & 83rd St","Chicago",41.743921,-87.575225,11,"5/27/2016 11:38",NA,10,7,75.5383333333333,27.3,1,1
"549",589,"Milwaukee Ave & Cuyler Ave","Chicago",41.954468,-87.749594,15,"5/27/2016 11:39",NA,11,30,136.871212121212,37,0.636363636363636,1
"550",590,"Kilbourn Ave & Irving Park Rd","Chicago",41.953733,-87.740569,15,"5/27/2016 11:39",NA,114,73,114.511842105263,35.6578947368421,0.254385964912281,1
"551",591,"Kilbourn Ave & Milwaukee Ave","Chicago",41.948818,-87.74002,23,"5/27/2016 11:40",NA,58,51,164.051149425287,31.7692307692307,0.903846153846154,0.896551724137931
"552",592,"Knox Ave & Montrose Ave","Chicago",41.960631,-87.745359,15,"5/27/2016 11:40",NA,44,36,141.596590909091,37.3902439024391,0.878048780487805,0.931818181818182
"553",593,"Halsted St & 59th St","Chicago",41.787539,-87.644874,11,"5/27/2016 11:41",NA,2,1,183.375,58,1,0.5
"554",594,"Western Blvd & 48th Pl","Chicago",41.805661,-87.683392,15,"5/27/2016 11:42",NA,13,12,141.739743589744,40.9230769230769,1,1
"555",595,"Wabash Ave & 87th St","Chicago",41.736646,-87.622634,15,"5/27/2016 11:42",NA,8,9,183.25,34.5714285714287,0.857142857142857,0.875
"556",596,"Benson Ave & Church St","Evanston",42.048214,-87.683485,15,"6/14/2016 11:00",NA,688,715,165.411337209302,38.431784107946,0.83208395802099,0.969476744186046
"557",597,"Chicago Ave & Washington St","Evanston",42.032562,-87.679101,15,"6/14/2016 11:01",NA,318,337,187.519339622641,43.1387096774195,0.693548387096774,0.974842767295597
"558",598,"Elmwood Ave & Austin St","Evanston",42.025784,-87.684107,15,"6/14/2016 11:02",NA,108,121,163.414814814815,40.952380952381,0.704761904761905,0.972222222222222
"559",599,"Valli Produce - Evanston Plaza","Evanston",42.039742,-87.699413,15,"6/14/2016 11:03",NA,35,51,154.380476190476,36.4193548387098,0.645161290322581,0.885714285714286
"560",600,"Dodge Ave & Church St","Evanston",42.048308,-87.698224,15,"6/14/2016 11:03",NA,150,92,180.036444444444,41.3266666666666,0.746666666666667,1
"561",601,"Central St Metra","Evanston",42.063598,-87.69873,15,"6/14/2016 11:04",NA,113,133,170.611356932153,51.4150943396226,0.830188679245283,0.938053097345133
"562",602,"Central St & Girard Ave","Evanston",42.064313,-87.686152,15,"6/14/2016 11:04",NA,133,115,164.822180451128,46.7377049180327,0.795081967213115,0.917293233082707
"563",603,"Chicago Ave & Sheridan Rd","Evanston",42.050491,-87.677821,15,"6/14/2016 11:05",NA,348,288,129.689463601533,27.683870967742,0.887096774193548,0.890804597701149
"564",604,"Sheridan Rd & Noyes St (NU)","Evanston",42.058239,-87.677432,15,"6/14/2016 11:05",NA,370,365,154.620765765766,35.3196480938416,0.920821114369501,0.921621621621622
"565",605,"University Library (NU)","Evanston",42.052939,-87.673447,15,"6/14/2016 11:06",NA,524,569,149.855661577608,33.3671875,0.884765625,0.977099236641221
"566",606,"Forest Ave & Chicago Ave","Oak Park",41.894355,-87.80022,19,"6/23/2016 12:21",NA,37,35,119.37027027027,46.96875,1,0.864864864864865
"567",607,"Cuyler Ave & Augusta St","Oak Park",41.898168,-87.783055,11,"6/23/2016 12:22",NA,18,20,148.824074074074,51,0.944444444444444,1
"568",608,"Humphrey Ave & Ontario St","Oak Park",41.890249,-87.778281,11,"6/23/2016 12:23",NA,2,6,246.966666666667,44,1,1
"569",609,"Forest Ave & Lake St","Oak Park",41.88891,-87.800255,15,"6/23/2016 12:23",NA,25,21,161.582,44.7916666666667,1,0.96
"570",610,"Marion St & South Blvd","Oak Park",41.88681,-87.80287,19,"6/23/2016 12:24",NA,39,38,162.354273504273,42.5526315789473,0.789473684210526,0.974358974358974
"571",611,"Oak Park Ave & South Blvd","Oak Park",41.886923,-87.793899,19,"6/23/2016 12:25",NA,24,22,178.25,48.1666666666667,0.75,1
"572",612,"Ridgeland Ave & Lake St","Oak Park",41.888085,-87.785236,15,"6/23/2016 12:25",NA,11,5,204.866666666667,44.3636363636363,0.727272727272727,1
"573",613,"Wisconsin Ave & Madison St (Temp)","Oak Park",41.879902,-87.803911,11,"6/23/2016 12:26",NA,14,17,186.845238095238,52.5714285714287,0.642857142857143,1
"574",614,"East Ave & Madison St","Oak Park",41.880113,-87.789247,15,"6/23/2016 12:26",NA,12,12,183.911111111111,40,0.833333333333333,1
"575",615,"Lombard Ave & Madison St","Oak Park",41.87981,-87.779425,15,"6/23/2016 12:27",NA,8,15,198.160416666667,39.125,0.75,1
"576",616,"Oak Park Ave & Harrison St","Oak Park",41.872987,-87.793945,19,"6/23/2016 12:27",NA,3,7,206.905555555556,42,1,1
"577",617,"East Ave & Garfield St","Oak Park",41.871312,-87.788938,15,"6/23/2016 12:27",NA,9,11,164.251851851852,35.3333333333333,1,1
"578",618,"Lombard Ave & Garfield St","Oak Park",41.870699,-87.778797,19,"6/23/2016 12:28",NA,13,6,130.164102564103,42.0769230769231,0.846153846153846,1
"579",619,"Keystone Ave & Fullerton Ave","Chicago",41.924361,-87.727752,15,"7/7/2016 16:46",NA,59,56,157.770903954802,37.1636363636364,0.836363636363636,0.932203389830508
"580",620,"Orleans St & Chestnut St (NEXT Apts)","Chicago",41.898203,-87.637536,15,"7/7/2016 16:46",NA,842,814,192.412806809184,37.3398294762485,0.898903775883069,0.975059382422803
"581",622,"California Ave & Cortez St","Chicago",41.900363,-87.696704,15,"4/27/2017 9:17",NA,371,380,123.558715184187,37.25,0.8,0.970350404312669
"582",623,"Michigan Ave & 8th St","Chicago",41.872773,-87.623981,31,"6/13/2017 15:23",NA,644,612,163.759342650104,42.5555555555557,0.68287037037037,0.667701863354037
"583",624,"Dearborn St & Van Buren St (*)","Chicago",41.876268,-87.629155,16,"7/26/2017 21:25",NA,429,432,181.3391996892,41.4570024570025,0.769041769041769,0.948717948717949
"584",625,"Chicago Ave & Dempster St","Evanston",42.041691,-87.680687,15,"8/11/2017 16:53",NA,169,160,171.570019723866,38.1963190184049,0.809815950920245,0.964497041420118
"585",626,"Delano Ct & Roosevelt Rd","Chicago",41.867491,-87.63219,19,"12/21/2017 22:06",NA,561,530,176.370320855615,37.6172161172162,0.789377289377289,0.973262032085562
