"","id","name","city","latitude","longitude","dpcapacity","online_date","X","n_of_trips_from","n_of_trips_to","avg_trip_duration","avg_age","perc_male","perc_subs"
"1",2,"Buckingham Fountain","Chicago",41.876393,-87.620328,27,"6/10/2013 10:43",NA,4092,3539,122.63385467579,33.1231231231232,0.640845070422535,0.163489736070381
"2",3,"Shedd Aquarium","Chicago",41.86722596,-87.61535539,55,"6/10/2013 10:44",NA,7869,6553,116.362115050621,35.577578051088,0.628557874762808,0.214639725505147
"3",4,"Burnham Harbor","Chicago",41.856268,-87.613348,23,"6/10/2013 10:46",NA,4369,4386,124.512199588006,34.5397978521794,0.647281921618205,0.688487067978943
"4",5,"State St & Harrison St","Chicago",41.874053,-87.627716,23,"6/10/2013 10:46",NA,2388,2660,178.898387772194,36.9433015554441,0.728779507785033,0.803601340033501
"5",6,"Dusable Harbor","Chicago",41.885041,-87.612794,39,"6/10/2013 11:18",NA,4975,4107,128.639467336683,37.341907824223,0.651287553648069,0.333467336683417
"6",7,"Field Blvd & South Water St","Chicago",41.88634906,-87.61751655,19,"6/19/2013 10:00",NA,3444,3324,154.225295199381,36.6922209695604,0.795334838224229,0.744192799070848
"7",9,"Leavitt St & Archer Ave","Chicago",41.82879202,-87.68060446,19,"6/21/2013 9:33",NA,205,205,89.4856097560976,42.5824742268042,0.365979381443299,0.931707317073171
"8",11,"Jeffery Blvd & 71st St","Chicago",41.76663824,-87.57645011,11,"6/21/2013 9:39",NA,107,98,175.301869158879,37.5824175824175,0.593406593406593,0.841121495327103
"9",12,"South Shore Dr & 71st St","Chicago",41.76640946,-87.56568757,15,"6/21/2013 10:00",NA,146,168,120.502739726027,40.967213114754,0.721311475409836,0.746575342465753
"10",13,"Wilton Ave & Diversey Pkwy","Chicago",41.932418,-87.652705,27,"6/22/2013 18:29",NA,3772,4030,158.76533669141,31.4221582733812,0.742214532871972,0.902173913043478
"11",14,"Morgan St & 18th St","Chicago",41.858086,-87.651073,15,"6/22/2013 18:33",NA,1044,1239,156.589383780332,32.3492063492063,0.787741203178207,0.823754789272031
"12",15,"Racine Ave & 18th St","Chicago",41.858166,-87.656495,15,"6/22/2013 18:35",NA,990,1014,169.194915824916,32.8548387096773,0.80184331797235,0.851515151515152
"13",16,"Paulina Ave & North Ave","Chicago",41.910337,-87.670072,15,"6/22/2013 18:55",NA,1976,1873,145.352808704453,32.7265005662514,0.687074829931973,0.868927125506073
"14",17,"Honore St & Division St","Chicago",41.903119,-87.673935,23,"6/22/2013 18:58",NA,2251,2371,154.197179031542,32.2530864197531,0.68502316006176,0.850288760550866
"15",18,"Wacker Dr & Washington St","Chicago",41.883132,-87.637321,19,"6/22/2013 19:00",NA,5016,4838,178.518112041467,40.0470364901919,0.828481012658228,0.934210526315789
"16",19,"Loomis St & Taylor St (*)","Chicago",41.869417,-87.660996,16,"6/22/2013 19:03",NA,2575,2482,172.224362459547,28.4599605522683,0.762825572217837,0.964660194174757
"17",20,"Sheffield Ave & Kingsbury St","Chicago",41.910522,-87.653106,15,"6/22/2013 19:04",NA,2738,3009,177.88105064524,33.6881889763779,0.680078895463511,0.912344777209642
"18",21,"Aberdeen St & Jackson Blvd","Chicago",41.87772613,-87.65478743,15,"6/22/2013 19:07",NA,3212,2985,181.265561436281,35.5330906684314,0.786825554452168,0.931195516811955
"19",22,"May St & Taylor St","Chicago",41.8694821,-87.6554864,15,"6/22/2013 19:09",NA,2971,2968,167.48972848648,28.458031837916,0.848046309696093,0.919555705149781
"20",23,"Orleans St & Elm St (*)","Chicago",41.902924,-87.637715,16,"6/22/2013 20:20",NA,1310,1257,193.670254452926,32.7747466874514,0.787996882307093,0.961068702290076
"21",24,"Fairbanks Ct & Grand Ave","Chicago",41.89186,-87.62062,15,"6/22/2013 20:23",NA,6525,6629,172.337392081737,35.1792142442423,0.748642358417378,0.759233716475096
"22",25,"Michigan Ave & Pearson St","Chicago",41.89766,-87.62351,23,"6/22/2013 20:26",NA,3091,2960,146.667761242316,35.6814692982457,0.71569703622393,0.540925266903915
"23",26,"McClurg Ct & Illinois St","Chicago",41.890359,-87.617532,31,"6/22/2013 20:28",NA,5610,5340,166.830121806298,37.2872736293723,0.760119195430842,0.687344028520499
"24",27,"Larrabee St & North Ave","Chicago",41.91021,-87.6435,19,"6/22/2013 20:31",NA,1317,1237,179.223462414579,32.7595673876872,0.7751873438801,0.90584662110858
"25",28,"Larrabee St & Menomonee St","Chicago",41.91468,-87.64332,15,"6/22/2013 20:38",NA,1534,1504,155.183561495002,35.4601832276251,0.684284707540522,0.915254237288136
"26",29,"Noble St & Milwaukee Ave","Chicago",41.90068,-87.6626,15,"6/22/2013 20:52",NA,2108,1891,177.491484819734,32.5007898894155,0.739199157007376,0.890891840607211
"27",30,"Ashland Ave & Augusta Blvd","Chicago",41.899643,-87.6677,15,"6/22/2013 20:54",NA,1727,1667,182.614041690793,32.3173803526449,0.692695214105793,0.910828025477707
"28",31,"Franklin St & Chicago Ave","Chicago",41.896776,-87.635633,23,"6/22/2013 20:58",NA,4095,3465,177.668127798128,35.3842091365198,0.800739957716702,0.91013431013431
"29",32,"Racine Ave & Congress Pkwy","Chicago",41.87464,-87.65703,19,"6/22/2013 21:00",NA,1970,2138,179.072368866328,32.162592986185,0.774176408076514,0.952284263959391
"30",33,"State St & Van Buren St","Chicago",41.877181,-87.627844,27,"6/22/2013 21:06",NA,3487,3350,164.68473855272,39.0698166431594,0.808465608465608,0.792084886722111
"31",34,"Cannon Dr & Fullerton Ave","Chicago",41.92675599,-87.63442878,15,"6/22/2013 21:09",NA,1983,2226,123.454294839469,36.2800429184549,0.658064516129032,0.426122037317196
"32",35,"Streeter Dr & Grand Ave","Chicago",41.892278,-87.612043,47,"6/22/2013 21:12",NA,21741,26224,120.194945034727,34.965234880046,0.646364290856731,0.252426291338945
"33",36,"Franklin St & Jackson Blvd","Chicago",41.87770796,-87.63532114,39,"6/24/2013 23:34",NA,5570,5336,173.897567324955,38.2278532333266,0.837591240875912,0.866606822262118
"34",37,"Dearborn St & Adams St","Chicago",41.87935636,-87.62979104,19,"6/25/2013 1:12",NA,3545,3452,169.878862247297,39.5545664358722,0.752393529217564,0.842595204513399
"35",38,"Clark St & Lake St","Chicago",41.88602083,-87.63087606,27,"6/25/2013 1:43",NA,4831,4502,170.287735458497,36.3272850986618,0.814217578923461,0.897329745394328
"36",39,"Wabash Ave & Adams St","Chicago",41.87947235,-87.62568861,23,"6/25/2013 1:44",NA,3346,3577,168.318659095437,40.1792245793708,0.854089904200442,0.787208607292289
"37",40,"LaSalle St & Adams St","Chicago",41.87934437,-87.63198522,15,"6/25/2013 1:44",NA,1992,1840,169.343164323963,38.4285714285713,0.837460317460317,0.765060240963855
"38",41,"Federal St & Polk St","Chicago",41.87207763,-87.62954377,19,"6/25/2013 1:44",NA,3465,3586,180.478706108706,35.4180936995153,0.688025889967638,0.878210678210678
"39",42,"Wabash Ave & Cermak Rd","Chicago",41.852619,-87.626488,11,"6/25/2013 7:38",NA,803,911,169.475612287256,36.8925979680696,0.767543859649123,0.793275217932752
"40",43,"Michigan Ave & Washington St","Chicago",41.88389277,-87.62464914,43,"6/25/2013 10:57",NA,10862,11135,179.090606395385,38.5062162796153,0.841277295139704,0.762935002761922
"41",44,"State St & Randolph St","Chicago",41.8847302,-87.62773357,27,"6/25/2013 10:59",NA,5347,5151,175.334767159155,36.6531766753699,0.786803135888502,0.836356835608753
"42",45,"Michigan Ave & Congress Pkwy","Chicago",41.876243,-87.624426,15,"6/25/2013 11:01",NA,2292,2059,163.643899069226,42.6187919463086,0.764271323035594,0.608638743455497
"43",46,"Wells St & Walton St","Chicago",41.89993001,-87.63443007,19,"6/25/2013 11:03",NA,1982,1469,179.798713420787,34.1260115606935,0.702890173410405,0.86125126135217
"44",47,"State St & Kinzie St","Chicago",41.889187,-87.627754,31,"6/25/2013 11:04",NA,5109,5857,175.544154107131,37.1255401410053,0.769563239308462,0.834997064004698
"45",48,"Larrabee St & Kingsbury St","Chicago",41.897764,-87.642884,39,"6/25/2013 11:20",NA,5505,6001,198.126118679988,35.2095040543088,0.787358490566038,0.958946412352407
"46",49,"Dearborn St & Monroe St","Chicago",41.88131982,-87.62952092,39,"6/25/2013 11:21",NA,5602,5453,169.48759371653,39.3342449697207,0.80203244088333,0.894858978936094
"47",50,"Clark St & Congress Pkwy","Chicago",41.87593267,-87.63058454,27,"6/25/2013 11:23",NA,3573,3484,189.364311036477,41.3807367149759,0.856582125603865,0.917996081724041
"48",51,"Clark St & Randolph St","Chicago",41.88457623,-87.63188991,39,"6/25/2013 11:24",NA,4830,4962,168.074682539683,37.8815219867852,0.79904197080292,0.895238095238095
"49",52,"Michigan Ave & Lake St","Chicago",41.886024,-87.624117,31,"6/25/2013 11:25",NA,6524,6500,176.365233496832,38.6294881588999,0.792661952990636,0.77391171060699
"50",53,"LaSalle (Wells) St & Huron St","Chicago",41.894882,-87.632326,27,"6/25/2013 11:27",NA,5089,4574,184.102967184123,34.3297475301865,0.79388473383194,0.884063666732167
"51",54,"Ogden Ave & Chicago Ave","Chicago",41.89636246,-87.65406127,19,"6/25/2013 11:28",NA,2516,2306,188.128365129836,33.7323210412148,0.74056399132321,0.902225755166932
"52",55,"Halsted St & Roosevelt Rd","Chicago",41.867324,-87.648625,23,"6/25/2013 11:33",NA,1230,1376,179.598739837398,31.2941176470588,0.787689562890277,0.910569105691057
"53",56,"Desplaines St & Kinzie St","Chicago",41.88871604,-87.64444785,27,"6/25/2013 11:50",NA,5459,4663,174.126766196495,33.5049721559269,0.777070063694268,0.910423154423887
"54",57,"Clinton St & Roosevelt Rd","Chicago",41.86711778,-87.64108796,15,"6/25/2013 11:54",NA,1642,1831,180.352293950467,35.3929313929314,0.794301598332175,0.869671132764921
"55",58,"Marshfield Ave & Cortland St","Chicago",41.916017,-87.668879,23,"6/25/2013 11:57",NA,4661,4455,179.583555031109,37.5388280133398,0.750774362639981,0.882428663376958
"56",59,"Wabash Ave & Roosevelt Rd","Chicago",41.867227,-87.625961,23,"6/25/2013 12:06",NA,6144,6594,170.455707465278,35.7711328349626,0.722893878334293,0.831380208333333
"57",60,"Dayton St & North Ave","Chicago",41.91057803,-87.64942193,19,"6/25/2013 12:08",NA,2979,3097,178.851941367349,34.0782339271882,0.756976744186047,0.856998992950655
"58",61,"Wood St & Milwaukee Ave","Chicago",41.907655,-87.672552,19,"6/25/2013 12:09",NA,3166,3239,143.951000210571,32.3503597122303,0.696904247660187,0.859128237523689
"59",62,"McCormick Place","Chicago",41.85137517,-87.61883465,27,"6/25/2013 12:13",NA,2089,1966,129.636197542684,35.6800000000001,0.667431192660551,0.323599808520823
"60",66,"Clinton St & Lake St","Chicago",41.885637,-87.641823,23,"6/25/2013 12:21",NA,6455,6755,180.446080557707,37.1843557286595,0.816396103896104,0.945933384972889
"61",67,"Sheffield Ave & Fullerton Ave","Chicago",41.92560188,-87.65370804,19,"6/25/2013 12:23",NA,4716,4624,160.454470596551,33.6169611307421,0.762611975483263,0.878922815945717
"62",68,"Clinton St & Tilden St","Chicago",41.875885,-87.640795,23,"6/25/2013 12:52",NA,2154,1967,168.120403899721,35.8635689569946,0.774417451660882,0.931754874651811
"63",69,"Damen Ave & Pierce Ave","Chicago",41.90939601,-87.67769193,19,"6/25/2013 12:53",NA,5167,5678,141.670743822979,33.1978494623656,0.707540351722477,0.786142829494871
"64",71,"Morgan St & Lake St","Chicago",41.88548331,-87.65230486,23,"6/25/2013 12:55",NA,4975,5668,166.341413735343,36.3443322109988,0.823225516621743,0.879396984924623
"65",72,"Wabash Ave & 16th St","Chicago",41.860384,-87.625813,39,"6/25/2013 12:56",NA,2675,2835,177.414323987539,37.4807609165587,0.762975778546713,0.842990654205607
"66",73,"Jefferson St & Monroe St","Chicago",41.880422,-87.642746,19,"6/25/2013 13:08",NA,2383,2187,178.316002238075,34.2467120181407,0.7512505684402,0.914813260595888
"67",74,"Kingsbury St & Erie St","Chicago",41.893882,-87.641711,23,"6/26/2013 12:19",NA,5634,4987,187.416956573187,35.2575115207374,0.772676991150443,0.95509407170749
"68",75,"Canal St & Jackson Blvd","Chicago",41.877245,-87.639366,31,"6/26/2013 15:21",NA,3420,3105,184.660609161793,38.8314890926335,0.832329635499208,0.907894736842105
"69",76,"Lake Shore Dr & Monroe St","Chicago",41.880958,-87.616743,39,"6/26/2013 15:26",NA,13057,10399,122.038492762503,34.1423149905124,0.644583220200923,0.24040744428276
"70",77,"Clinton St & Madison St","Chicago",41.882242,-87.641066,31,"6/26/2013 15:27",NA,13233,14050,178.627897428147,39.0141373801916,0.850076042583847,0.936446761883171
"71",80,"Aberdeen St & Monroe St","Chicago",41.880419,-87.655519,19,"6/26/2013 19:00",NA,2805,2970,187.013511586453,36.2701298701299,0.762152133580705,0.952584670231729
"72",81,"Daley Center Plaza","Chicago",41.884241,-87.629634,39,"6/26/2013 19:02",NA,10031,10204,165.969233708836,37.1125453381694,0.765403096636412,0.92493270860333
"73",84,"Milwaukee Ave & Grand Ave","Chicago",41.891578,-87.648384,19,"6/26/2013 19:14",NA,4105,3779,179.702082825822,32.3339527475446,0.789641434262948,0.90231425091352
"74",85,"Michigan Ave & Oak St","Chicago",41.90096039,-87.62377664,23,"6/26/2013 19:18",NA,9280,9996,128.810079022989,34.2932671558049,0.624891961970614,0.445581896551724
"75",86,"Eckhart Park","Chicago",41.89637337,-87.66098386,19,"6/26/2013 19:32",NA,2100,2177,201.730698412698,32.2604912998977,0.7247565351102,0.917619047619048
"76",87,"Racine Ave & Fullerton Ave","Chicago",41.92556258,-87.65840426,19,"6/26/2013 19:36",NA,2336,2292,152.052247431507,31.7067812798473,0.777936962750716,0.883133561643836
"77",88,"Racine Ave & Randolph St","Chicago",41.884069,-87.656853,19,"6/26/2013 19:44",NA,2293,2334,178.798357319378,36.0526563234603,0.770114942528736,0.908853030963803
"78",89,"Financial Pl & Congress Pkwy","Chicago",41.87500913,-87.63310582,31,"6/26/2013 19:47",NA,1818,1707,199.160020168684,41.465761511216,0.832349468713105,0.91969196919692
"79",90,"Millennium Park","Chicago",41.8810317,-87.62408432,47,"6/26/2013 19:51",NA,10646,11678,138.154190932432,36.6509659214239,0.679991310015208,0.375540108961112
"80",91,"Clinton St & Washington Blvd","Chicago",41.88338,-87.64117,31,"6/26/2013 23:39",NA,13866,12797,188.835493292947,41.3315016936394,0.875612144955926,0.949372565988749
"81",92,"Carpenter St & Huron St","Chicago",41.894556,-87.653449,19,"6/27/2013 8:58",NA,1840,1501,201.864773550725,34.0815972222222,0.782407407407407,0.926630434782609
"82",93,"Sheffield Ave & Willow St","Chicago",41.913688,-87.652855,15,"6/27/2013 11:41",NA,2663,2700,177.983934159469,33.6150081566068,0.714928425357873,0.9076229815997
"83",94,"Clark St & Armitage Ave","Chicago",41.918306,-87.636282,31,"6/27/2013 12:33",NA,6085,6105,151.457633525062,34.4599824098505,0.645764576457646,0.718816762530814
"84",95,"Stony Island Ave & 64th St","Chicago",41.77870057,-87.58678762,15,"6/27/2013 13:58",NA,70,74,188.02880952381,41.7608695652175,0.195652173913043,0.614285714285714
"85",96,"Desplaines St & Randolph St","Chicago",41.88461619,-87.64457058,23,"6/28/2013 10:47",NA,3443,3248,162.863471778488,34.1715145436308,0.796327212020033,0.855939587568981
"86",97,"Field Museum","Chicago",41.865312,-87.617867,55,"6/30/2013 13:25",NA,3286,2455,123.90296206127,39.2152713891444,0.634101382488479,0.276019476567255
"87",98,"LaSalle St & Washington St","Chicago",41.882664,-87.63253,15,"7/15/2013 14:41",NA,3312,2998,168.2694897343,38.8462048392444,0.813852813852814,0.896437198067633
"88",99,"Lake Shore Dr & Ohio St","Chicago",41.89257,-87.614492,19,"7/15/2013 15:12",NA,4085,3964,154.8643125255,34.0004020908725,0.696737817156665,0.568176254589963
"89",100,"Orleans St & Merchandise Mart Plaza","Chicago",41.888243,-87.63639,35,"7/15/2013 17:26",NA,8361,6671,168.367444085636,35.0278425278425,0.793389500972132,0.915321133835666
"90",101,"63rd St Beach","Chicago",41.78101637,-87.57611976,23,"7/16/2013 1:27",NA,309,313,138.642718446602,37.5731707317073,0.695121951219512,0.488673139158576
"91",102,"Stony Island Ave & 67th St","Chicago",41.7734585,-87.58533974,11,"7/16/2013 1:28",NA,114,112,189.912280701754,43.2823529411764,0.180722891566265,0.719298245614035
"92",103,"Clinton St & Polk St (*)","Chicago",41.87146652,-87.64094913,16,"7/18/2013 15:51",NA,545,792,181.695504587156,35.0798479087453,0.902671755725191,0.937614678899083
"93",106,"State St & Pearson St","Chicago",41.897448,-87.628722,27,"7/18/2013 15:59",NA,3511,3214,183.619638279692,36.5506964690637,0.790584415584416,0.864995727712902
"94",107,"Desplaines St & Jackson Blvd","Chicago",41.878287,-87.643909,27,"7/18/2013 16:39",NA,4031,4018,170.342016042339,35.7336696760487,0.708931419457735,0.921855618953113
"95",108,"Halsted St & Polk St","Chicago",41.87184,-87.64664,19,"7/18/2013 16:41",NA,2507,2363,176.543086025794,29.3425063505504,0.842506350550381,0.932987634623055
"96",109,"900 W Harrison St","Chicago",41.874754,-87.649807,19,"7/18/2013 16:45",NA,1708,1533,171.962978142077,34.4445137157106,0.760449157829071,0.929156908665105
"97",110,"Dearborn St & Erie St","Chicago",41.893992,-87.629318,23,"7/18/2013 16:46",NA,6925,6994,182.638750902527,34.7323340471091,0.722450996540932,0.861371841155235
"98",111,"Sedgwick St & Huron St","Chicago",41.894666,-87.638437,19,"7/18/2013 16:52",NA,2925,2979,191.985601139601,35.8744983582635,0.816855162349508,0.925811965811966
"99",112,"Green St & Randolph St","Chicago ",41.883668,-87.64867,15,"7/18/2013 17:00",NA,4279,4970,168.101012697671,34.3564023536005,0.779118720179624,0.799485861182519
"100",113,"Bissell St & Armitage Ave","Chicago ",41.91844,-87.65222,15,"7/18/2013 17:09",NA,3871,4116,161.051959011453,31.8489506355306,0.687333135568081,0.858176181865151
"101",114,"Sheffield Ave & Waveland Ave","Chicago",41.949399,-87.654529,27,"7/18/2013 17:17",NA,4287,5071,148.492994323925,34.1488191523779,0.765163801492053,0.685560998367157
"102",115,"Sheffield Ave & Wellington Ave","Chicago",41.936266,-87.652662,23,"7/18/2013 17:18",NA,3675,3834,147.36419047619,32.5372689326177,0.667760214733075,0.897414965986395
"103",116,"Western Ave & Winnebago Ave","Chicago",41.91552,-87.687022,15,"7/18/2013 17:19",NA,2120,2128,151.777397798742,36.1330448891292,0.734163508391987,0.84811320754717
"104",117,"Wilton Ave & Belmont Ave","Chicago",41.94018,-87.65304,23,"7/18/2013 17:20",NA,5254,5325,156.507254790001,32.4612779408444,0.722134297987791,0.824324324324324
"105",118,"Sedgwick St & North Ave","Chicago",41.911386,-87.638677,19,"7/18/2013 17:20",NA,3623,3520,173.779919955838,33.4266083697689,0.7515625,0.879657742202595
"106",119,"Ashland Ave & Lake St","Chicago",41.88541,-87.66732,19,"7/18/2013 17:21",NA,1281,1180,187.889773614364,37.5004476275737,0.729632945389436,0.861046057767369
"107",120,"Wentworth Ave & Archer Ave","Chicago",41.853605,-87.631886,23,"7/18/2013 17:21",NA,1511,1699,156.515166556364,31.2075289575289,0.705314009661836,0.648577101257445
"108",121,"Blackstone Ave & Hyde Park Blvd","Chicago",41.802562,-87.590368,19,"7/18/2013 17:22",NA,942,849,184.637420382166,35.9963144963144,0.761377613776138,0.835456475583864
"109",122,"Ogden Ave & Congress Pkwy","Chicago",41.87501,-87.67328,15,"7/18/2013 17:23",NA,433,327,171.196420323326,37.1446078431372,0.565110565110565,0.939953810623557
"110",123,"California Ave & Milwaukee Ave","Chicago",41.922695,-87.697153,15,"7/18/2013 17:23",NA,2840,2792,158.281126760563,34.1624242424243,0.727125506072875,0.854577464788732
"111",124,"Damen Ave & Cullerton St","Chicago",41.855048,-87.675726,15,"7/18/2013 17:24",NA,523,566,151.099904397706,33.3429844097996,0.594654788418708,0.835564053537285
"112",125,"Rush St & Hubbard St","Chicago",41.890173,-87.626185,23,"7/18/2013 17:53",NA,3427,3774,184.93082871316,37.2915540540541,0.82786608048698,0.837175372045521
"113",126,"Clark St & North Ave","Chicago ",41.911974,-87.631942,15,"7/18/2013 17:54",NA,2764,2921,157.905010853835,34.4284989858013,0.666158536585366,0.679088277858177
"114",127,"Lincoln Ave & Fullerton Ave","Chicago ",41.925905,-87.64926,15,"7/18/2013 17:55",NA,2809,2951,158.851655393378,34.0648109680101,0.742833402575821,0.845496618013528
"115",128,"Damen Ave & Chicago Ave","Chicago",41.895769,-87.67722,19,"7/18/2013 17:55",NA,2977,3294,158.348074123838,33.0096153846155,0.619170984455959,0.895196506550218
"116",129,"Blue Island Ave & 18th St","Chicago ",41.857556,-87.661535,15,"7/18/2013 17:56",NA,1318,1432,159.737556904401,31.4152765583844,0.644424934152766,0.855083459787557
"117",130,"Damen Ave & Division St","Chicago ",41.903266,-87.678435,15,"7/18/2013 17:57",NA,1940,1989,151.700773195876,32.5466351829989,0.768047337278106,0.854639175257732
"118",131,"Lincoln Ave & Belmont Ave","Chicago ",41.939365,-87.668385,15,"7/18/2013 17:57",NA,2068,2089,172.565852675693,34.3331542181622,0.644444444444444,0.885396518375242
"119",132,"Wentworth Ave & 24th St","Chicago ",41.849237,-87.631715,15,"7/18/2013 17:58",NA,420,478,178.978531746032,28.4542586750788,0.607594936708861,0.730952380952381
"120",133,"Kingsbury St & Kinzie St","Chicago",41.88917683,-87.63850577,31,"7/18/2013 22:47",NA,9960,9937,175.991818942436,35.8406528508538,0.800431034482759,0.927510040160643
"121",134,"Peoria St & Jackson Blvd","Chicago",41.877749,-87.649633,19,"7/18/2013 22:48",NA,3945,3638,170.805234474018,35.2755627881747,0.807160292921074,0.922686945500634
"122",135,"Halsted St & 21st St","Chicago",41.85378,-87.64665,11,"7/18/2013 22:49",NA,458,450,166.525327510917,32.6458333333333,0.682291666666667,0.818777292576419
"123",136,"Racine Ave & 13th St","Chicago ",41.865054,-87.656959,15,"7/18/2013 22:52",NA,379,378,176.328935795954,31.5934718100891,0.72700296735905,0.865435356200528
"124",137,"Morgan Ave & 14th Pl","Chicago ",41.862378,-87.651062,15,"7/18/2013 22:54",NA,1408,1334,188.420975378788,34.8850148367953,0.701038575667656,0.950284090909091
"125",138,"Clybourn Ave & Division St","Chicago ",41.904613,-87.640552,15,"7/18/2013 22:55",NA,1794,1743,188.808714232627,34.2238442822384,0.767639902676399,0.909141583054627
"126",140,"Dearborn Pkwy & Delaware Pl","Chicago ",41.898969,-87.629912,19,"7/18/2013 22:56",NA,4780,5186,182.529752440725,35.8598999285205,0.712292518643252,0.861924686192469
"127",141,"Clark St & Lincoln Ave","Chicago ",41.915689,-87.6346,23,"7/18/2013 22:57",NA,5582,5791,159.488680879016,33.4554479418887,0.623906705539359,0.70584020064493
"128",142,"McClurg Ct & Erie St","Chicago ",41.894503,-87.617854,31,"7/18/2013 22:58",NA,4945,4907,167.893751263903,34.4871428571428,0.647535127411288,0.826693629929221
"129",143,"Sedgwick St & Webster Ave","Chicago ",41.922167,-87.638888,15,"7/19/2013 9:19",NA,3552,3521,145.253833521021,35.0081799591003,0.710337768679631,0.797297297297297
"130",144,"Larrabee St & Webster Ave","Chicago ",41.921822,-87.64414,19,"7/19/2013 9:20",NA,3622,3861,153.155669059451,32.7508132726089,0.683816346466949,0.832965212589729
"131",145,"Mies van der Rohe Way & Chestnut St","Chicago",41.89858665,-87.62191523,19,"7/19/2013 9:20",NA,4150,3922,156.245112449799,36.0662407531943,0.683997299122215,0.683373493975904
"132",146,"Loomis St & Jackson Blvd","Chicago ",41.877945,-87.662007,11,"7/19/2013 9:21",NA,1346,1356,192.30303368004,37.8395552025418,0.675933280381255,0.930163447251114
"133",147,"Indiana Ave & 26th St","Chicago ",41.845687,-87.622481,15,"7/19/2013 9:22",NA,793,706,147.334174022699,32.90625,0.67910447761194,0.810844892812106
"134",148,"State St & 33rd St","Chicago ",41.834734,-87.625813,15,"7/19/2013 9:22",NA,2635,2966,170.749588867805,25.9306930693069,0.743366336633663,0.951423149905123
"135",149,"Calumet Ave & 33rd St","Chicago ",41.8349,-87.61793,11,"7/19/2013 9:23",NA,1050,933,151.841412698413,26.9105527638192,0.737688442211055,0.932380952380952
"136",150,"Fort Dearborn Dr & 31st St","Chicago ",41.838556,-87.608218,27,"7/19/2013 9:23",NA,2693,2722,137.03380987746,30.9007050528789,0.646262507357269,0.592647604901597
"137",152,"Lincoln Ave & Diversey Pkwy","Chicago ",41.932225,-87.658617,15,"7/19/2013 9:25",NA,2220,2151,148.711621621622,32.6054109239408,0.636038795303726,0.868468468468468
"138",153,"Southport Ave & Wellington Ave","Chicago ",41.935733,-87.663576,19,"7/19/2013 9:34",NA,3276,3281,161.956303418803,32.4558480506498,0.688437187604132,0.904761904761905
"139",154,"Southport Ave & Belmont Ave","Chicago ",41.93949,-87.66378,15,"7/19/2013 9:34",NA,1439,1445,150.982881630762,32.5938261575955,0.813821138211382,0.829742876997915
"140",156,"Clark St & Wellington Ave","Chicago ",41.93649682,-87.64753866,15,"7/19/2013 9:35",NA,3430,3449,151.105354713314,33.6918280275681,0.697437582128778,0.875510204081633
"141",157,"Lake Shore Dr & Wellington Ave","Chicago ",41.936669,-87.636794,15,"7/19/2013 9:36",NA,3459,3677,125.674886768816,36.6571976967371,0.642692307692308,0.718126626192541
"142",158,"Milwaukee Ave & Wabansia Ave","Chicago ",41.912616,-87.681391,15,"7/19/2013 9:40",NA,2633,2804,142.808051652108,34.3160945162729,0.62399643175736,0.829851879984808
"143",159,"Claremont Ave & Hirsch St","Chicago",41.907781,-87.685854,11,"7/19/2013 9:56",NA,830,773,119.782730923695,32.4123036649214,0.642670157068063,0.912048192771084
"144",160,"Campbell Ave & North Ave","Chicago",41.910535,-87.689556,15,"7/19/2013 9:57",NA,872,897,126.614755351682,32.9569752281616,0.810704960835509,0.857798165137615
"145",161,"Rush St & Superior St","Chicago",41.89576475,-87.62590803,23,"7/19/2013 10:00",NA,3511,3394,170.178847431881,37.0131990274401,0.687174139728884,0.790657932213045
"146",162,"Damen Ave & Wellington Ave","Chicago",41.93588,-87.67842,15,"7/19/2013 10:02",NA,939,1029,179.320908768193,37.8370370370371,0.708281829419036,0.856230031948882
"147",163,"Damen Ave & Clybourn Ave","Chicago",41.931931,-87.677856,15,"7/19/2013 10:02",NA,919,1044,148.683133841132,36.018315018315,0.766788766788767,0.878128400435256
"148",164,"Franklin St & Lake St","Chicago",41.885837,-87.6355,27,"7/19/2013 10:03",NA,4559,4201,170.035972801053,36.907196969697,0.832346672981293,0.921693353805659
"149",165,"Clark St & Grace St","Chicago",41.95078,-87.659172,19,"7/19/2013 10:03",NA,2367,2174,157.092515138713,33.9415113871635,0.777950310559006,0.792986903253063
"150",166,"Ashland Ave & Wrightwood Ave","Chicago ",41.92883,-87.668507,15,"7/19/2013 10:07",NA,1056,1190,155.369255050505,36.2708559046587,0.75839653304442,0.864583333333333
"151",167,"Damen Ave & Coulter St","Chicago ",41.8492,-87.67564,11,"7/19/2013 10:08",NA,133,129,160.479197994987,35.1855670103093,0.494845360824742,0.729323308270677
"152",168,"Michigan Ave & 14th St","Chicago ",41.864059,-87.623727,19,"7/19/2013 10:08",NA,2895,2794,181.820967184801,37.8177830940988,0.706937799043062,0.851813471502591
"153",169,"Canal St & Harrison St","Chicago ",41.874255,-87.639573,15,"7/19/2013 10:09",NA,1071,830,161.281263616558,40.6659751037344,0.73036093418259,0.889822595704949
"154",170,"Clinton St & 18th St","Chicago",41.85795,-87.640826,15,"7/19/2013 11:04",NA,626,656,198.384451544196,40.3775322283609,0.904235727440147,0.849840255591054
"155",171,"May St & Cullerton St","Chicago ",41.855136,-87.654127,11,"7/19/2013 11:05",NA,619,606,156.072401723209,30.9118705035971,0.773381294964029,0.878836833602585
"156",172,"Rush St & Cedar St","Chicago",41.9023087,-87.62769053,11,"7/19/2013 11:05",NA,3444,3632,171.763308168796,33.8523489932886,0.71044776119403,0.727932636469222
"157",173,"Mies van der Rohe Way & Chicago Ave","Chicago ",41.89691,-87.621743,15,"7/19/2013 11:07",NA,3879,4106,156.369098564922,36.672337529772,0.663487738419619,0.729053879865945
"158",174,"Canal St & Madison St","Chicago ",41.882091,-87.639833,35,"7/19/2013 11:07",NA,9237,8206,182.12357006243,38.1936042484415,0.860610263522885,0.928873010717766
"159",175,"Wells St & Polk St","Chicago ",41.872596,-87.633502,19,"7/19/2013 11:08",NA,2357,2064,181.801492009617,33.1553120533588,0.774178180085755,0.880780653372932
"160",176,"Clark St & Elm St","Chicago ",41.902973,-87.63128,27,"7/19/2013 11:08",NA,6439,6697,178.70986954496,32.7121968616264,0.705242510699001,0.854635813014443
"161",177,"Theater on the Lake","Chicago ",41.926277,-87.630834,23,"7/19/2013 11:09",NA,10554,11774,116.673536100057,33.6246558580606,0.641370869033048,0.580348682963805
"162",178,"State St & 19th St","Chicago ",41.856594,-87.627542,15,"7/19/2013 11:10",NA,801,847,179.60682480233,37.5645412130639,0.656298600311042,0.782771535580524
"163",179,"MLK Jr Dr & Oakwood Blvd","Chicago",41.82256,-87.61615,15,"7/19/2013 11:12",NA,268,293,143.751741293532,37.2202643171806,0.770925110132159,0.83955223880597
"164",180,"Ritchie Ct & Banks St","Chicago",41.906866,-87.626217,15,"7/19/2013 11:14",NA,2265,2070,167.934797645327,32.6762430939227,0.658712541620422,0.763355408388521
"165",181,"LaSalle St & Illinois St","Chicago",41.890762,-87.631697,31,"7/19/2013 11:15",NA,6190,6871,172.05915993538,33.9984665516581,0.759309021113244,0.815993537964459
"166",182,"Wells St & Elm St","Chicago",41.903222,-87.634324,23,"7/20/2013 12:38",NA,3326,3063,191.244963920625,31.934872501723,0.698035160289555,0.857486470234516
"167",183,"Damen Ave & Augusta Blvd","Chicago",41.899113,-87.677212,23,"7/20/2013 17:09",NA,1921,1874,136.67321707444,32.9890046296296,0.706257242178447,0.883394065590838
"168",184,"State St & 35th St","Chicago",41.83104,-87.62688,19,"7/21/2013 7:52",NA,1059,1186,176.701542335537,27.7011952191235,0.785856573705179,0.9452313503305
"169",185,"Stave St & Armitage Ave","Chicago",41.917741,-87.691392,11,"7/26/2013 10:32",NA,578,624,156.43624567474,33.0540540540539,0.688149688149688,0.818339100346021
"170",186,"Ogden Ave & Race Ave","Chicago",41.891795,-87.658751,15,"7/27/2013 13:03",NA,1880,2079,191.209193262411,33.0237957051654,0.730702263493906,0.905851063829787
"171",188,"Greenview Ave & Fullerton Ave","Chicago",41.92533,-87.6658,15,"7/28/2013 14:35",NA,1746,1892,170.761483390607,30.9885641677256,0.790343074968234,0.88659793814433
"172",190,"Southport Ave & Wrightwood Ave","Chicago",41.928773,-87.663913,15,"8/5/2013 9:36",NA,1735,1770,162.800749279539,35.9168218497828,0.793296089385475,0.922190201729107
"173",191,"Canal St & Monroe St (*)","Chicago",41.880884,-87.639525,28,"8/6/2013 13:14",NA,4115,3312,177.375641960308,38.115327747659,0.873546151942588,0.971081409477521
"174",192,"Canal St & Adams St","Chicago",41.879255,-87.639904,47,"8/6/2013 13:27",NA,17755,17198,193.954788322538,40.2262333825702,0.844064982805644,0.945761757251478
"175",193,"State St & 29th St","Chicago",41.841707,-87.626938,15,"8/6/2013 14:08",NA,163,109,160.901533742331,34.52,0.853658536585366,0.760736196319018
"176",194,"Wabash Ave & Wacker Pl","Chicago",41.886875,-87.62603,19,"8/7/2013 14:01",NA,3725,3788,161.532984340045,39.3173184357543,0.76165609847072,0.678657718120805
"177",195,"Columbus Dr & Randolph St","Chicago",41.884728,-87.619521,47,"8/7/2013 14:11",NA,10397,6243,179.592488217755,38.4737517498834,0.821545284780579,0.79984610945465
"178",196,"Cityfront Plaza Dr & Pioneer Ct","Chicago",41.890573,-87.622072,23,"8/7/2013 16:23",NA,4040,3602,177.537367986799,37.0790638836179,0.786145535430569,0.746039603960396
"179",197,"Michigan Ave & Madison St","Chicago",41.882134,-87.625125,19,"8/8/2013 11:27",NA,2978,2997,167.62301320797,40.0260939381774,0.744064386317908,0.787777031564809
"180",198,"Green St & Madison St","Chicago",41.881892,-87.648789,19,"8/8/2013 11:47",NA,4687,5080,172.689822914444,34.2898686679175,0.767605633802817,0.893535310433113
"181",199,"Wabash Ave & Grand Ave","Chicago",41.891466,-87.626761,31,"8/8/2013 12:26",NA,6149,6157,167.271710847292,35.4271641165374,0.751207222338862,0.730525288664824
"182",200,"MLK Jr Dr & 47th St","Chicago",41.809851,-87.616279,11,"8/10/2013 15:31",NA,161,176,136.05983436853,29.9767441860465,0.65891472868217,0.795031055900621
"183",201,"Indiana Ave & 40th St","Chicago",41.82168,-87.6216,15,"8/10/2013 15:47",NA,111,87,125.76966966967,34.452380952381,0.710843373493976,0.756756756756757
"184",202,"Halsted St & 18th St","Chicago",41.857499,-87.646277,15,"8/12/2013 17:23",NA,666,716,171.240015015015,32.7052631578947,0.833333333333333,0.836336336336336
"185",203,"Western Ave & 21st St","Chicago",41.854109,-87.685838,15,"8/13/2013 11:55",NA,363,378,131.696831955923,38.6489675516225,0.793510324483776,0.933884297520661
"186",204,"Prairie Ave & Garfield Blvd","Chicago",41.794853,-87.618691,11,"8/13/2013 15:14",NA,526,506,185.04489860583,37.2415349887133,0.590497737556561,0.840304182509506
"187",205,"Paulina St & 18th St","Chicago",41.857901,-87.668745,15,"8/13/2013 16:01",NA,1016,1054,156.544209317585,33.3530092592594,0.711316397228637,0.832677165354331
"188",206,"Halsted St & Archer Ave","Chicago",41.847203,-87.646795,15,"8/14/2013 8:53",NA,455,457,161.547399267399,35.5574572127139,0.696078431372549,0.881318681318681
"189",207,"Emerald Ave & 28th St","Chicago",41.84358,-87.645368,15,"8/14/2013 10:26",NA,598,591,152.64370122631,33.3967971530249,0.613879003558719,0.92809364548495
"190",208,"Ashland Ave & 21st St","Chicago",41.85381,-87.665897,15,"8/14/2013 13:01",NA,265,337,144.478050314465,30.4716157205239,0.714912280701754,0.830188679245283
"191",209,"Normal Ave & Archer Ave","Chicago",41.849527,-87.640591,11,"8/14/2013 13:18",NA,242,216,148.562534435262,37.1473214285713,0.732142857142857,0.913223140495868
"192",210,"Ashland Ave & Division St","Chicago",41.90345,-87.667747,19,"8/14/2013 16:30",NA,4804,4824,162.456557035803,32.8404750815091,0.755898154636767,0.879891756869276
"193",211,"St. Clair St & Erie St","Chicago",41.894448,-87.622663,19,"8/14/2013 16:32",NA,5330,6526,172.485075046904,38.6571038251366,0.724908759124088,0.796810506566604
"194",212,"Orleans St & Ohio St","Chicago",41.892154,-87.636928,23,"8/14/2013 17:16",NA,4128,3988,184.85186127261,33.9429812652729,0.769314472252448,0.873788759689923
"195",213,"Leavitt St & North Ave","Chicago",41.910153,-87.68229,15,"8/15/2013 11:42",NA,1341,1316,140.988453890132,36.0469011725293,0.647403685092127,0.865026099925429
"196",214,"Damen Ave & Grand Ave","Chicago",41.89122,-87.67686,23,"8/15/2013 11:46",NA,1639,1784,140.132265609111,35.2911392405063,0.682878081279147,0.907260524710189
"197",215,"Damen Ave & Madison St","Chicago",41.88137,-87.67493,15,"8/15/2013 14:08",NA,715,645,155.645198135198,34.7422680412371,0.687285223367698,0.79020979020979
"198",216,"California Ave & Division St","Chicago",41.903029,-87.697474,15,"8/15/2013 14:13",NA,585,687,150.735413105413,33.5962441314555,0.635933806146572,0.695726495726496
"199",217,"Racine Ave (May St) & Fulton St","Chicago",41.886926,-87.656919,15,"8/15/2013 15:14",NA,1804,2094,175.289855875831,35.2117039586919,0.803786574870912,0.953436807095344
"200",218,"Wells St & 19th St","Chicago",41.856802,-87.633879,11,"8/15/2013 16:21",NA,487,410,133.534941820671,38.212,0.672,0.498973305954825
"201",219,"Damen Ave & Cortland St","Chicago",41.916027,-87.677411,19,"8/16/2013 11:54",NA,2589,2643,141.642822196472,36.0217491901897,0.711172925359295,0.811896485129394
"202",220,"Hampden Ct & Diversey Pkwy","Chicago",41.93262,-87.642385,23,"8/16/2013 11:58",NA,4634,4996,148.286214213782,31.9297466701489,0.674339523934083,0.803625377643505
"203",222,"Milwaukee Ave & Rockwell St","Chicago",41.920195,-87.693033,19,"8/16/2013 15:04",NA,910,906,134.192087912088,33.8232258064515,0.704134366925065,0.814285714285714
"204",223,"Clifton Ave & Armitage Ave","Chicago",41.918216,-87.656936,15,"8/16/2013 16:07",NA,2090,2095,160.777623604466,33.2658160552896,0.663650878126663,0.880861244019139
"205",224,"Halsted St & Willow St","Chicago",41.913778,-87.64884,19,"8/16/2013 17:25",NA,1735,1730,166.623756003842,32.694983277592,0.616465863453815,0.844956772334294
"206",225,"Halsted St & Dickens Ave","Chicago",41.919936,-87.64883,15,"8/19/2013 9:23",NA,2601,2694,154.925688837627,33.4414893617022,0.664596273291925,0.836601307189543
"207",226,"Racine Ave & Belmont Ave","Chicago",41.939743,-87.658865,15,"8/19/2013 9:29",NA,2252,2138,152.79010509177,32.595901208618,0.691943127962085,0.817495559502664
"208",227,"Southport Ave & Waveland Ave","Chicago",41.94815,-87.66394,23,"8/19/2013 13:15",NA,3049,3018,155.639127582814,34.308840413318,0.654440154440154,0.844867169563791
"209",228,"Damen Ave & Melrose Ave","Chicago",41.9406,-87.6785,15,"8/19/2013 15:50",NA,754,801,167.024292661362,35.1841704718418,0.558599695585997,0.847480106100796
"210",229,"Southport Ave & Roscoe St","Chicago",41.943739,-87.66402,19,"8/19/2013 16:10",NA,3212,3550,159.329799709423,33.1878676470587,0.697605893186004,0.825653798256538
"211",230,"Lincoln Ave & Roscoe St","Chicago",41.94334,-87.67097,19,"8/19/2013 17:20",NA,2456,2766,159.570202225841,35.5053333333333,0.714158504007124,0.907980456026059
"212",231,"Sheridan Rd & Montrose Ave","Chicago",41.96167,-87.65464,23,"8/20/2013 10:12",NA,1901,2311,163.918709451166,34.0862500000001,0.710526315789474,0.817464492372436
"213",232,"Pine Grove Ave & Waveland Ave","Chicago",41.949275,-87.646303,23,"8/20/2013 11:09",NA,3039,3127,147.311867939015,33.8113050706568,0.714943491000419,0.774267851266864
"214",233,"Sangamon St & Washington Blvd (*)","Chicago",41.883004,-87.651148,16,"8/20/2013 11:46",NA,2233,2095,184.926033736379,36.8798361401912,0.760839799178457,0.947156291983878
"215",234,"Clark St & Montrose Ave","Chicago",41.961588,-87.666036,19,"8/20/2013 14:21",NA,1306,1258,164.161026033691,34.763698630137,0.707191780821918,0.879785604900459
"216",236,"Sedgwick St & Schiller St","Chicago",41.905664,-87.638517,15,"8/20/2013 16:12",NA,717,735,186.446141329614,33.0461783439491,0.787539936102236,0.849372384937239
"217",237,"MLK Jr Dr & 29th St","Chicago",41.842052,-87.617,15,"8/20/2013 16:56",NA,3660,3194,168.727445355191,26.587356321839,0.730227207362669,0.948633879781421
"218",238,"Ravenswood Ave & Montrose Ave (*)","Chicago",41.961615,-87.674365,16,"8/21/2013 9:51",NA,1063,1032,170.326638444653,35.2814960629921,0.641025641025641,0.920978363123236
"219",239,"Western Ave & Leland Ave","Chicago",41.966555,-87.688487,19,"8/21/2013 10:50",NA,1852,1982,165.115343772498,39.0870359099208,0.682926829268293,0.873650107991361
"220",240,"Sheridan Rd & Irving Park Rd","Chicago",41.954245,-87.654406,27,"8/21/2013 11:07",NA,3114,3153,150.548292656819,34.8605577689243,0.792603335750544,0.875722543352601
"221",241,"Morgan St & Polk St","Chicago ",41.871737,-87.65103,19,"8/21/2013 11:57",NA,3845,3781,174.33674035544,29.4960197639309,0.799835255354201,0.937581274382315
"222",242,"Damen Ave & Leland Ave","Chicago ",41.967094,-87.679028,15,"8/21/2013 16:08",NA,1563,1541,159.699072296865,36.842541436464,0.683044982698962,0.909149072296865
"223",243,"Lincoln Ave & Leavitt St","Chicago ",41.962391,-87.684146,15,"8/21/2013 16:45",NA,1328,1424,158.451054216867,37.4821280133001,0.658354114713217,0.890813253012048
"224",244,"Ravenswood Ave & Irving Park Rd","Chicago",41.95469,-87.67393,19,"8/22/2013 9:49",NA,1382,1465,167.375590931018,35.0565593087197,0.755503144654088,0.894356005788712
"225",245,"Clarendon Ave & Junior Ter","Chicago",41.961004,-87.649603,23,"8/22/2013 11:01",NA,1482,1609,157.832726045884,35.3503649635036,0.643772893772894,0.710526315789474
"226",246,"Ashland Ave & Belle Plaine Ave","Chicago",41.956061,-87.668869,11,"8/22/2013 12:47",NA,466,485,169.200643776824,33.7665782493368,0.639257294429708,0.789699570815451
"227",247,"Shore Dr & 55th St","Chicago",41.795212,-87.580715,19,"8/22/2013 12:50",NA,2195,2273,154.377501898254,37.1462140992166,0.63570961412688,0.677904328018223
"228",248,"Woodlawn Ave & 55th St","Chicago",41.795264,-87.596471,19,"8/22/2013 14:31",NA,945,846,154.950335097002,35.3918575063612,0.720306513409962,0.817989417989418
"229",249,"Montrose Harbor","Chicago",41.963982,-87.638181,31,"8/22/2013 17:09",NA,4486,4502,131.692521176995,34.5370758273984,0.635753252203105,0.466116807846634
"230",250,"Ashland Ave & Wellington Ave","Chicago",41.936083,-87.669807,19,"8/23/2013 9:09",NA,975,1059,150.397641025641,37.0221703617269,0.674065420560748,0.867692307692308
"231",251,"Clarendon Ave & Leland Ave","Chicago",41.967968,-87.650001,15,"8/26/2013 11:52",NA,1200,1205,140.283222222222,36.9342251950948,0.745535714285714,0.729166666666667
"232",252,"Greenwood Ave & 47th St","Chicago",41.809835,-87.599383,15,"8/26/2013 14:33",NA,341,379,179.306207233627,36.3308270676691,0.695488721804511,0.765395894428152
"233",253,"Clifton Ave & Lawrence Ave","Chicago",41.968812,-87.657659,15,"8/31/2013 8:58",NA,1432,1359,169.038838454376,35.7581543357201,0.706164931945556,0.856843575418994
"234",254,"Pine Grove Ave & Irving Park Rd","Chicago",41.954383,-87.648043,15,"8/31/2013 9:03",NA,2685,2690,137.403022967101,36.4324942791761,0.674301420064132,0.791806331471136
"235",255,"Indiana Ave & Roosevelt Rd","Chicago",41.867888,-87.623041,39,"8/31/2013 10:38",NA,6678,6332,167.912234201857,38.31630222992,0.66131830008673,0.661725067385445
"236",256,"Broadway & Sheridan Rd","Chicago",41.952833,-87.649993,15,"8/31/2013 11:54",NA,1681,1601,159.385901249256,34.4592901878914,0.720946416144746,0.827483640690065
"237",257,"Lincoln Ave & Waveland Ave","Chicago",41.948797,-87.675278,15,"8/31/2013 12:17",NA,874,1049,160.703890160183,36.3377135348226,0.624178712220762,0.854691075514874
"238",258,"Logan Blvd & Elston Ave","Chicago",41.930584,-87.685126,19,"8/31/2013 14:15",NA,1210,1259,170.610371900826,33.5232452142207,0.72105742935278,0.892561983471074
"239",259,"California Ave & Francis Pl","Chicago",41.918121,-87.696972,15,"9/3/2013 9:39",NA,964,969,135.463381742739,33.1856796116506,0.771779141104294,0.838174273858921
"240",260,"Kedzie Ave & Milwaukee Ave","Chicago",41.929567,-87.707857,27,"9/3/2013 12:41",NA,2714,3024,142.624975436011,34.2142857142858,0.747982062780269,0.801031687546057
"241",261,"Hermitage Ave & Polk St","Chicago",41.871514,-87.669886,15,"9/3/2013 13:15",NA,1927,1962,185.808251167618,35.4095600217274,0.667028788701792,0.952776336274001
"242",262,"Halsted St & 37th St","Chicago",41.827059,-87.64572,11,"9/3/2013 13:18",NA,114,142,134.713011695906,38.2688172043011,0.89247311827957,0.807017543859649
"243",263,"Rhodes Ave & 32nd St","Chicago",41.836208,-87.613533,11,"9/3/2013 13:47",NA,617,655,153.017044840627,27.0918803418804,0.737179487179487,0.739059967585089
"244",264,"Stetson Ave & South Water St","Chicago",41.886835,-87.62232,19,"9/3/2013 15:12",NA,3756,3135,181.918943024494,38.1088066368857,0.817833173537872,0.820021299254526
"245",265,"Cottage Grove Ave & Oakwood Blvd","Chicago",41.822985,-87.6071,15,"9/3/2013 17:01",NA,337,367,134.447181008902,34.4935064935064,0.660130718954248,0.382789317507418
"246",267,"Lake Park Ave & 47th St","Chicago",41.809443,-87.591875,15,"9/4/2013 15:57",NA,538,562,127.622521685254,37.1623188405797,0.672463768115942,0.598513011152416
"247",268,"Lake Shore Dr & North Blvd","Chicago",41.911722,-87.626804,39,"9/5/2013 9:48",NA,10193,12242,128.812712972955,32.9393837910247,0.637795275590551,0.525851074266654
"248",270,"Stony Island Ave & 75th St","Chicago",41.75866967,-87.58688287,11,"9/5/2013 14:16",NA,83,95,154.347389558233,44.8421052631579,0.605263157894737,0.91566265060241
"249",271,"Cottage Grove Ave & 43rd St","Chicago",41.816499,-87.606582,11,"9/9/2013 16:33",NA,169,213,135.077317554241,31.1748251748252,0.753521126760563,0.834319526627219
"250",272,"Indiana Ave & 31st St","Chicago",41.838842,-87.621857,11,"9/9/2013 16:51",NA,1215,1175,155.832510288066,29.5264084507041,0.71315092674316,0.928395061728395
"251",273,"Michigan Ave & 18th St","Chicago",41.857813,-87.62455,23,"9/10/2013 9:13",NA,2853,2971,186.82482182498,36.281399046105,0.707753479125249,0.864353312302839
"252",274,"Racine Ave & 15th St","Chicago",41.861267,-87.656625,15,"9/10/2013 10:45",NA,633,671,175.437019483939,34.1660305343512,0.75717017208413,0.818325434439178
"253",275,"Ashland Ave & 13th St","Chicago",41.865234,-87.666507,15,"9/10/2013 12:20",NA,652,761,173.133742331288,31.9438016528925,0.758677685950413,0.920245398773006
"254",276,"California Ave & North Ave","Chicago",41.91044,-87.6972,11,"9/10/2013 14:24",NA,640,629,151.203880208333,34.3683206106871,0.614643545279383,0.8
"255",277,"Ashland Ave & Grand Ave","Chicago",41.891072,-87.666611,15,"9/10/2013 14:57",NA,1189,1250,193.168979534623,33.1555153707052,0.673321234119782,0.92094196804037
"256",278,"Wallace St & 35th St","Chicago",41.830629,-87.64129,15,"9/10/2013 15:57",NA,539,541,127.412090290662,32.2450199203188,0.872509960159363,0.929499072356215
"257",279,"Halsted St & 35th St (*)","Chicago",41.830661,-87.647172,16,"9/11/2013 9:17",NA,488,548,152.554576502732,30.5849056603774,0.839662447257384,0.94672131147541
"258",280,"Morgan St & 31st St","Chicago",41.8378,-87.65114,11,"9/11/2013 11:50",NA,580,643,157.206867816092,29.4815533980582,0.798804780876494,0.875862068965517
"259",281,"Western Ave & 24th St","Chicago",41.84847,-87.685109,11,"9/11/2013 12:09",NA,156,147,130.840705128205,35.2692307692307,0.8,0.814102564102564
"260",282,"Halsted St & Maxwell St","Chicago",41.864883,-87.647071,15,"9/11/2013 14:02",NA,1892,2002,176.765591966173,30.511961722488,0.80622009569378,0.876321353065539
"261",283,"LaSalle St & Jackson Blvd","Chicago",41.87817,-87.631985,35,"9/11/2013 15:53",NA,7916,7390,168.892260400876,39.5167316220939,0.866917596451136,0.930394138453765
"262",284,"Michigan Ave & Jackson Blvd","Chicago",41.87785,-87.62408,23,"9/12/2013 9:21",NA,4277,4490,155.484393266308,38.299923488906,0.725325172149962,0.579845686228665
"263",285,"Wood St & Hubbard St","Chicago",41.889587,-87.671956,19,"9/12/2013 10:22",NA,1065,1146,174.320532081377,35.3264417845485,0.706971677559913,0.859154929577465
"264",286,"Franklin St & Quincy St","Chicago",41.878724,-87.634793,23,"9/12/2013 12:08",NA,3537,3304,171.704834605598,37.9510124101894,0.847485303723057,0.84959004806333
"265",287,"Franklin St & Monroe St","Chicago",41.880317,-87.635185,27,"9/12/2013 14:19",NA,9589,8202,169.88265199708,35.8469238555842,0.817629179331307,0.917196787986234
"266",288,"Larrabee St & Armitage Ave","Chicago",41.918084,-87.643749,11,"9/12/2013 15:23",NA,2022,1906,151.931050115397,33.096196868009,0.676174496644295,0.872898120672601
"267",289,"Wells St & Concord Ln","Chicago",41.912133,-87.634656,19,"9/13/2013 9:46",NA,5944,6199,176.306673396142,32.7626594511016,0.646240092789484,0.847577388963661
"268",290,"Kedzie Ave & Palmer Ct","Chicago",41.921525,-87.707322,15,"9/13/2013 10:50",NA,1163,1155,137.012496417312,34.5162561576356,0.772139303482587,0.853826311263972
"269",291,"Wells St & Evergreen Ave","Chicago",41.906724,-87.63483,19,"9/13/2013 12:11",NA,3682,3634,182.832749411552,33.1891891891892,0.69762137504073,0.80771319934818
"270",292,"Southport Ave & Clark St","Chicago",41.957081,-87.664199,11,"9/13/2013 14:55",NA,728,687,160.026419413919,37.1062590975255,0.66957787481805,0.914835164835165
"271",293,"Broadway & Wilson Ave","Chicago",41.965221,-87.658139,15,"9/17/2013 14:59",NA,1716,1821,163.571804584305,35.7757496740549,0.709908735332464,0.870629370629371
"272",294,"Broadway & Berwyn Ave","Chicago",41.978353,-87.659753,15,"9/17/2013 15:42",NA,1577,1752,153.430131050518,35.8813056379822,0.718236173393124,0.826886493341788
"273",295,"Broadway & Argyle St","Chicago",41.973815,-87.65966,15,"9/17/2013 17:38",NA,1445,1453,170.664786620531,36.1861743912018,0.735641227380016,0.86643598615917
"274",296,"Broadway & Belmont Ave","Chicago",41.940106,-87.645451,19,"9/17/2013 17:48",NA,3164,3693,148.975753265908,32.7411128284389,0.719488570321581,0.798040455120101
"275",297,"Paulina St & Montrose Ave","Chicago",41.961507,-87.671387,15,"9/18/2013 11:00",NA,751,756,164.694451841988,37.2852760736196,0.644171779141104,0.85352862849534
"276",298,"Lincoln Ave & Belle Plaine Ave","Chicago",41.955927,-87.679259,15,"9/18/2013 11:51",NA,1221,1371,163.730808080808,37.9893428063942,0.711367673179396,0.902538902538903
"277",299,"Halsted St & Roscoe St","Chicago",41.94367,-87.64895,15,"9/18/2013 14:50",NA,3308,3317,154.51603688029,33.1665443873808,0.755882352941176,0.80229746070133
"278",300,"Broadway & Barry Ave","Chicago",41.937725,-87.644095,19,"9/18/2013 15:13",NA,4127,4618,149.08386236976,32.4856480139172,0.688134609805628,0.813666101284226
"279",301,"Clark St & Schiller St","Chicago",41.907993,-87.631501,19,"9/18/2013 16:18",NA,3659,3116,171.409843308736,37.7692550505051,0.644030322173089,0.843399836020771
"280",302,"Sheffield Ave & Wrightwood Ave","Chicago",41.928712,-87.653833,19,"9/18/2013 16:55",NA,2151,2203,154.033116379978,31.208735110607,0.745859508852085,0.794514179451418
"281",303,"Broadway & Cornelia Ave","Chicago",41.945529,-87.646439,23,"9/19/2013 9:39",NA,3093,3253,152.046114883069,34.0755239224991,0.73513084853291,0.79631425800194
"282",304,"Broadway & Waveland Ave","Chicago",41.949074,-87.648636,15,"9/19/2013 12:10",NA,2585,2824,154.20419729207,35.6757493188011,0.732484076433121,0.835976789168279
"283",305,"Western Ave & Division St","Chicago",41.902893,-87.687275,15,"9/19/2013 12:55",NA,1305,1348,138.482950191571,33.0951965065501,0.678321678321678,0.865134099616858
"284",306,"Sheridan Rd & Buena Ave","Chicago",41.958494,-87.654966,19,"9/19/2013 15:36",NA,1598,1519,155.226543596162,33.8836720392433,0.700070077084793,0.879849812265332
"285",307,"Southport Ave & Clybourn Ave","Chicago",41.920771,-87.663712,15,"9/19/2013 16:30",NA,2046,2242,170.11362821766,33.5795148247978,0.770765911542611,0.88514173998045
"286",308,"Seeley Ave & Roscoe St","Chicago",41.943403,-87.679618,11,"9/19/2013 16:55",NA,898,927,156.849146250928,34.7490589711417,0.670012547051443,0.832962138084632
"287",309,"Leavitt St & Armitage Ave","Chicago",41.917805,-87.682437,11,"9/19/2013 17:19",NA,1180,1079,119.35145480226,37.3490838958535,0.732883317261331,0.851694915254237
"288",310,"Damen Ave & Charleston St","Chicago",41.920082,-87.677855,11,"9/19/2013 17:59",NA,1155,1181,152.16847041847,35.6735700197239,0.772267206477733,0.857142857142857
"289",311,"Leavitt St & Lawrence Ave","Chicago",41.968885,-87.684001,19,"9/20/2013 9:23",NA,846,709,147.792080378251,36.6308290155441,0.75,0.900709219858156
"290",312,"Clarendon Ave & Gordon Ter","Chicago",41.957879,-87.649519,15,"9/20/2013 9:45",NA,2126,2153,150.21863436814,33.9814106068891,0.696986301369863,0.842427093132643
"291",313,"Lakeview Ave & Fullerton Pkwy","Chicago",41.925858,-87.638973,19,"9/20/2013 10:42",NA,4263,4473,139.881796856674,32.6155309033281,0.655883285759594,0.712878254750176
"292",314,"Ravenswood Ave & Berteau Ave","Chicago",41.957921,-87.673567,15,"9/20/2013 11:56",NA,1093,1057,175.736535529125,34.5588526211673,0.740850642927794,0.913083257090576
"293",315,"Elston Ave & Wabansia Ave","Chicago",41.912919,-87.664169,23,"9/20/2013 12:38",NA,812,873,165.590763546798,37.61312849162,0.761904761904762,0.864532019704433
"294",316,"Damen Ave & Sunnyside Ave","Chicago",41.96325,-87.679258,19,"9/20/2013 14:22",NA,715,745,140.22344988345,38.3500761035007,0.583841463414634,0.886713286713287
"295",317,"Wood St & Taylor St","Chicago",41.869154,-87.671045,23,"9/20/2013 14:44",NA,1679,1730,183.459182052809,35.0111593304403,0.607697082557418,0.949374627754616
"296",318,"Southport Ave & Irving Park Rd","Chicago",41.954177,-87.664358,15,"9/20/2013 14:56",NA,1398,1395,158.412398664759,35.4372402327515,0.780650542118432,0.84549356223176
"297",319,"Greenview Ave & Diversey Pkwy","Chicago",41.932595,-87.665939,15,"9/20/2013 15:20",NA,1149,1088,163.142094574993,35.5583501006035,0.773413897280967,0.852045256744996
"298",320,"Loomis St & Lexington St","Chicago",41.872187,-87.661501,19,"9/20/2013 16:26",NA,3300,2963,167.829424242424,28.3822688274547,0.721144674085851,0.947272727272727
"299",321,"Wabash Ave & 9th St","Chicago",41.870769,-87.625734,19,"9/20/2013 16:37",NA,3286,3162,179.479848853723,37.7854785478548,0.712449504223283,0.805842970176506
"300",322,"Kimbark Ave & 53rd St","Chicago",41.799568,-87.594747,19,"9/20/2013 16:51",NA,1818,1959,165.471534653465,31.796652200868,0.759454432734036,0.874037403740374
"301",323,"Sheridan Rd & Lawrence Ave","Chicago",41.969517,-87.654691,15,"9/21/2013 11:30",NA,1006,1101,157.42162027833,33.099163679809,0.696172248803828,0.815109343936382
"302",324,"Stockton Dr & Wrightwood Ave","Chicago",41.93132,-87.638742,15,"9/21/2013 11:55",NA,2985,3216,116.303640424344,33.1734182976786,0.585432890517636,0.70820770519263
"303",325,"Clark St & Winnemac Ave","Chicago",41.973345,-87.667682,19,"9/23/2013 9:59",NA,1845,1812,162.296585365854,36.3771712158809,0.730434782608696,0.86070460704607
"304",326,"Clark St & Leland Ave","Chicago",41.967096,-87.667429,19,"9/23/2013 15:02",NA,1183,1152,157.13302338687,35.6297348484848,0.706831119544592,0.868131868131868
"305",327,"Sheffield Ave & Webster Ave","Chicago",41.92154,-87.653818,19,"9/23/2013 15:05",NA,3211,3388,160.928345271463,32.455940064217,0.709896391568417,0.856431018374338
"306",328,"Ellis Ave & 58th St","Chicago",41.788746,-87.601334,19,"9/25/2013 9:38",NA,1517,1464,175.619896725994,33.4215406562055,0.695060844667144,0.917600527356625
"307",329,"Lake Shore Dr & Diversey Pkwy","Chicago",41.932684,-87.63625,15,"9/25/2013 9:49",NA,3353,3431,127.700676011532,35.785046728972,0.687576374745418,0.704443781688041
"308",330,"Lincoln Ave & Addison St","Chicago",41.946176,-87.673308,19,"9/25/2013 13:25",NA,608,611,151.379084429825,35.9574468085107,0.671403197158082,0.90625
"309",331,"Halsted St & Blackhawk St (*)","Chicago",41.908537,-87.648627,20,"9/25/2013 13:55",NA,3807,4036,190.327987916995,33.7454202586207,0.736245954692557,0.955082742316785
"310",332,"Halsted St & Diversey Pkwy","Chicago",41.933666,-87.648959,19,"9/25/2013 15:35",NA,1723,1967,148.10022248017,32.804163955758,0.694661458333333,0.872896111433546
"311",333,"Ashland Ave & Blackhawk St","Chicago",41.907066,-87.667252,15,"9/25/2013 16:37",NA,2083,1980,162.484093454953,31.2483836206898,0.772506738544474,0.880460873739798
"312",334,"Lake Shore Dr & Belmont Ave","Chicago",41.940775,-87.639192,19,"9/26/2013 10:16",NA,4405,4612,121.02871358305,33.8938938938938,0.639678822348612,0.640635641316686
"313",335,"Calumet Ave & 35th St","Chicago",41.831379,-87.618034,15,"9/26/2013 10:33",NA,327,330,158.277930682977,31.9340277777778,0.694444444444444,0.850152905198777
"314",336,"Cottage Grove Ave & 47th St","Chicago",41.809855,-87.606755,15,"9/26/2013 11:04",NA,283,282,187.996819787986,33.0772532188842,0.838427947598253,0.812720848056537
"315",337,"Clark St & Chicago Ave","Chicago",41.896544,-87.630931,19,"9/26/2013 15:53",NA,3404,3014,167.744648452801,33.8407510431155,0.714285714285714,0.826380728554642
"316",338,"Calumet Ave & 18th St","Chicago",41.857611,-87.619407,15,"9/26/2013 15:59",NA,2362,2528,150.608354501835,40.1226415094341,0.690265486725664,0.687552921253175
"317",339,"Emerald Ave & 31st St","Chicago",41.838198,-87.645143,11,"9/27/2013 12:26",NA,959,1074,175.916996871741,29.4377142857143,0.802978235967927,0.900938477580813
"318",340,"Clark St & Wrightwood Ave","Chicago",41.929546,-87.643118,15,"10/1/2013 11:35",NA,4688,4700,151.436717861206,31.4447174447175,0.676586325627152,0.846843003412969
"319",341,"Adler Planetarium","Chicago",41.866095,-87.607267,39,"10/3/2013 12:01",NA,5101,4708,122.43758413383,35.5899318300997,0.676285414480588,0.315232307390708
"320",342,"Wolcott Ave & Polk St","Chicago",41.871262,-87.673688,15,"10/3/2013 15:04",NA,2647,2645,180.706479032867,35.9086990595611,0.764752475247525,0.958065734794107
"321",343,"Racine Ave & Wrightwood Ave","Chicago",41.928887,-87.658971,15,"10/3/2013 15:54",NA,1343,1239,148.635976669149,31.4172779136104,0.638956805215974,0.906924795234549
"322",344,"Ravenswood Ave & Lawrence Ave","Chicago",41.96909,-87.674237,39,"10/3/2013 16:21",NA,3878,3793,181.126126009971,38.1512208657048,0.758861289422272,0.921093347086127
"323",345,"Lake Park Ave & 56th St","Chicago",41.793242,-87.587782,19,"10/4/2013 11:37",NA,1146,1215,159.810063990692,41.32688172043,0.831168831168831,0.792321116928447
"324",346,"Ada St & Washington Blvd","Chicago",41.88283,-87.661206,15,"10/4/2013 14:37",NA,2358,2284,192.047052586938,35.7060948081264,0.721318879855465,0.924936386768448
"325",347,"Ashland Ave & Grace St","Chicago",41.950687,-87.6687,15,"10/4/2013 16:06",NA,1164,1177,162.733891752577,37.2066601371205,0.704211557296768,0.86426116838488
"326",348,"California Ave & 21st St","Chicago",41.854016,-87.695445,15,"10/9/2013 16:13",NA,235,252,129.581560283688,42.5529953917051,0.723502304147465,0.919148936170213
"327",349,"Halsted St & Wrightwood Ave","Chicago",41.929143,-87.649077,15,"10/10/2013 12:40",NA,2814,2779,137.951279317697,31.7615541922291,0.693061224489796,0.855721393034826
"328",350,"Ashland Ave & Chicago Ave","Chicago",41.895966,-87.667747,15,"10/10/2013 14:22",NA,1974,2051,186.785393448159,32.4636776390466,0.722884724588302,0.878419452887538
"329",351,"Cottage Grove Ave & 51st St","Chicago",41.803038,-87.606615,15,"10/10/2013 16:56",NA,218,195,175.190519877676,29.4357541899442,0.432584269662921,0.811926605504587
"330",352,"Jeffery Blvd & 67th St","Chicago",41.77351755,-87.57714283,15,"10/28/2013 13:24",NA,190,191,146.336754385965,36.5784313725489,0.362745098039216,0.505263157894737
"331",353,"Clark St & Touhy Ave","Chicago",42.01256012,-87.67436712,15,"12/31/2013 14:08",NA,181,182,144.265561694291,37.3548387096773,0.876623376623377,0.850828729281768
"332",354,"Sheridan Rd & Greenleaf Ave","Chicago",42.01058656,-87.66241209,15,"12/31/2013 14:09",NA,479,472,121.39940848991,36.3820224719102,0.816901408450704,0.726513569937369
"333",355,"South Shore Dr & 67th St","Chicago",41.773643,-87.567514,19,"1/9/2014 15:11",NA,245,194,119.950340136054,40.909090909091,0.727272727272727,0.595918367346939
"334",356,"Stony Island Ave & 71st St","Chicago",41.76649294,-87.58646088,11,"3/12/2014 12:27",NA,81,73,184.075514403292,38.7708333333333,0.340425531914894,0.580246913580247
"335",359,"Larrabee St & Division St","Chicago",41.90348607,-87.64335349,23,"4/22/2014 15:54",NA,2679,2448,189.006843349509,33.7617504051864,0.687347931873479,0.916013437849944
"336",364,"Larrabee St & Oak St","Chicago",41.90021949,-87.64298547,19,"1/30/2015 12:38",NA,2701,2725,189.472355917561,34.4140323824211,0.752410335518704,0.955201777119585
"337",365,"Halsted St & North Branch St","Chicago",41.89936844,-87.64847988,15,"1/30/2015 12:40",NA,720,637,188.025231481481,35.2796874999999,0.7625,0.872222222222222
"338",366,"Loomis St & Archer Ave","Chicago",41.84163254,-87.65743495,15,"1/30/2015 12:43",NA,239,248,96.8826359832636,33.2363636363636,0.772727272727273,0.903765690376569
"339",367,"Racine Ave & 35th St","Chicago",41.83069611,-87.65597591,15,"1/30/2015 12:47",NA,139,184,165.246163069544,38.2035398230089,0.785714285714286,0.79136690647482
"340",368,"Ashland Ave & Archer Ave","Chicago",41.83920868,-87.66560986,15,"1/30/2015 12:51",NA,151,117,186.331456953642,33.432,0.784,0.821192052980132
"341",369,"Wood St & 35th St","Chicago",41.83010465,-87.67029831,11,"1/30/2015 12:53",NA,140,157,151.195714285714,38.4916666666666,0.733333333333333,0.85
"342",370,"Calumet Ave & 21st St","Chicago",41.85418425,-87.61915374,15,"1/30/2015 13:02",NA,1030,1067,135.918478964401,38.8,0.644588045234249,0.496116504854369
"343",373,"Kedzie Ave & Chicago Ave","Chicago",41.8954653,-87.70612788,15,"1/30/2015 13:57",NA,196,213,166.039540816327,31.4571428571428,0.465116279069767,0.872448979591837
"344",374,"Western Ave & Walton St","Chicago",41.89841769,-87.68659602,19,"1/30/2015 13:58",NA,1582,1643,143.466434892541,34.3260273972603,0.738176833447567,0.907079646017699
"345",375,"Sacramento Blvd & Franklin Blvd","Chicago",41.889727,-87.70103,11,"1/30/2015 13:58",NA,184,185,166.919474637681,43.1123595505619,0.674157303370786,0.96195652173913
"346",376,"Artesian Ave & Hubbard St","Chicago",41.88949182,-87.68821936,35,"1/30/2015 13:59",NA,1577,1091,182.91340097231,41.4844720496894,0.893719806763285,0.907419150285352
"347",377,"Kedzie Ave & Lake St","Chicago",41.88460329,-87.70630374,19,"1/30/2015 13:59",NA,179,202,119.254655493482,39.5578231292518,0.715277777777778,0.804469273743017
"348",378,"California Ave & Lake St","Chicago",41.88445396,-87.69629814,15,"1/30/2015 14:00",NA,152,138,139.653179824561,40.9831932773109,0.423728813559322,0.782894736842105
"349",381,"Western Ave & Monroe St","Chicago",41.87978771,-87.68611281,15,"1/30/2015 14:22",NA,392,451,144.229974489796,33.834890965732,0.757009345794392,0.790816326530612
"350",382,"Western Ave & Congress Pkwy","Chicago",41.87474885,-87.68644528,19,"1/30/2015 14:25",NA,625,650,171.78504,34.1159420289855,0.806159420289855,0.8576
"351",383,"Ashland Ave & Harrison St","Chicago",41.874293,-87.667284,23,"1/30/2015 14:28",NA,1384,1317,198.087548169557,39.8625,0.622257053291536,0.921242774566474
"352",384,"Halsted St & 51st St","Chicago",41.80183164,-87.6452139,11,"1/30/2015 14:37",NA,19,15,175.761403508772,36.6153846153845,0.769230769230769,0.631578947368421
"353",385,"Princeton Ave & Garfield Blvd","Chicago",41.794982,-87.633124,11,"1/30/2015 14:37",NA,137,124,212.717396593674,37.4496124031007,0.728682170542636,0.927007299270073
"354",386,"Halsted St & 56th St","Chicago",41.79292965,-87.64499006,11,"1/30/2015 14:38",NA,17,19,221.341176470588,35.8571428571429,0.5,0.823529411764706
"355",388,"Halsted St & 63rd St","Chicago",41.77938114,-87.64462081,15,"1/30/2015 14:41",NA,135,144,179.724567901235,31.4883720930231,0.2734375,0.940740740740741
"356",390,"Wentworth Ave & 63rd St","Chicago",41.78007963,-87.62974631,11,"1/30/2015 14:42",NA,80,56,180.770625,28.0857142857142,0.485714285714286,0.8625
"357",391,"Halsted St & 69th St","Chicago",41.76906172,-87.64461358,11,"1/30/2015 14:42",NA,64,53,160.383072916667,33.0666666666666,0.583333333333333,0.890625
"358",392,"Perry Ave & 69th St","Chicago",41.76929309,-87.62819593,11,"1/30/2015 14:43",NA,31,38,194.075806451613,32.95,0.45,0.580645161290323
"359",393,"Calumet Ave & 71st St","Chicago",41.76550801,-87.61691793,11,"1/30/2015 14:45",NA,23,20,129.390579710145,38,0.333333333333333,0.478260869565217
"360",394,"Clark St & 9th St (AMLI)","Chicago",41.870816,-87.631246,15,"1/30/2015 15:11",NA,1344,1305,192.015451388889,33.4693708609273,0.786544850498339,0.878720238095238
"361",395,"Jeffery Blvd & 76th St","Chicago",41.75712007,-87.57583936,11,"1/30/2015 17:30",NA,22,26,180.65,30.8235294117646,0.529411764705882,0.772727272727273
"362",396,"Yates Blvd & 75th St","Chicago",41.758768,-87.56644,11,"1/30/2015 17:30",NA,32,42,167.629166666667,36.1923076923076,0.692307692307692,0.59375
"363",397,"Saginaw Ave & Exchange Ave","Chicago",41.75874584,-87.56011478,11,"1/30/2015 17:31",NA,96,103,144.594618055556,48.8020833333333,0.958333333333333,0.9375
"364",398,"Rainbow Beach","Chicago",41.75787145,-87.54938625,15,"1/30/2015 17:31",NA,57,50,126.047953216374,32.655172413793,0.689655172413793,0.491228070175439
"365",399,"South Shore Dr & 74th St","Chicago",41.76218896,-87.55927465,11,"1/30/2015 17:31",NA,148,146,120.750900900901,52.8691588785048,0.981132075471698,0.716216216216216
"366",400,"Cottage Grove Ave & 71st St","Chicago",41.76571904,-87.60495971,11,"1/30/2015 17:32",NA,22,18,113.339393939394,34.9333333333334,0.785714285714286,0.681818181818182
"367",401,"Shields Ave & 28th Pl","Chicago",41.842733,-87.635491,11,"1/30/2015 17:37",NA,294,298,161.505045351474,30.7527675276754,0.562962962962963,0.891156462585034
"368",402,"Shields Ave & 31st St","Chicago",41.838464,-87.635406,15,"1/30/2015 17:37",NA,609,570,170.38210180624,28.9117647058824,0.806985294117647,0.880131362889984
"369",403,"Wentworth Ave & 33rd St","Chicago",41.83452989,-87.63182298,15,"1/30/2015 17:37",NA,435,458,151.580574712644,33.0276381909548,0.771356783919598,0.891954022988506
"370",405,"Wentworth Ave & 35th St","Chicago",41.830777,-87.632504,15,"1/30/2015 17:38",NA,480,452,159.956388888889,35.9609375,0.7911227154047,0.791666666666667
"371",406,"Lake Park Ave & 35th St","Chicago",41.83127424,-87.60879919,19,"1/30/2015 17:38",NA,581,586,126.283792312106,39.2891566265059,0.696969696969697,0.543889845094664
"372",407,"State St & Pershing Rd","Chicago",41.82301524,-87.62656802,11,"1/30/2015 17:38",NA,34,43,123.235294117647,41.2068965517242,0.862068965517241,0.823529411764706
"373",408,"Union Ave & Root St","Chicago",41.819102,-87.643278,11,"1/30/2015 17:39",NA,89,96,233.256179775281,30.4578313253012,0.951807228915663,0.932584269662921
"374",409,"Shields Ave & 43rd St","Chicago",41.81620768,-87.63481935,11,"1/30/2015 17:39",NA,7,9,260.27619047619,23,1,0.142857142857143
"375",410,"Prairie Ave & 43rd St","Chicago",41.81665889,-87.61941246,15,"1/30/2015 17:39",NA,140,172,161.397023809524,33.04,0.75,0.821428571428571
"376",411,"Halsted St & 47th Pl","Chicago",41.80813391,-87.64561655,11,"1/30/2015 17:40",NA,73,73,158.98904109589,44.4375,0.84375,0.863013698630137
"377",412,"Princeton Ave & 47th St","Chicago",41.80931771,-87.63344929,11,"1/30/2015 17:40",NA,95,71,168.351228070175,39.9550561797753,0.853932584269663,0.905263157894737
"378",413,"Woodlawn Ave & Lake Park Ave","Chicago",41.81409271,-87.59700515,15,"1/30/2015 17:40",NA,291,308,141.153665521191,43.5336134453783,0.787234042553192,0.783505154639175
"379",414,"Canal St & Taylor St","Chicago",41.870257,-87.639474,15,"1/30/2015 17:40",NA,2099,2014,171.816619024933,37.05677557579,0.825107296137339,0.866126727012863
"380",415,"Calumet Ave & 51st St","Chicago",41.80229465,-87.61805358,15,"1/30/2015 17:41",NA,114,119,145.509649122807,32.4725274725274,0.813186813186813,0.798245614035088
"381",416,"Dorchester Ave & 49th St","Chicago",41.805772,-87.592464,15,"1/30/2015 17:42",NA,253,237,168.241304347826,37.7661691542289,0.562189054726368,0.782608695652174
"382",417,"Cornell Ave & Hyde Park Blvd","Chicago",41.802406,-87.586924,19,"1/30/2015 17:42",NA,1643,1612,189.387472103875,32.2096774193549,0.61734693877551,0.699330493000609
"383",418,"Ellis Ave & 53rd St","Chicago",41.79933626,-87.60095811,11,"1/30/2015 17:42",NA,1145,1093,154.456069868996,29.8279158699809,0.724665391969407,0.908296943231441
"384",419,"Lake Park Ave & 53rd St","Chicago",41.79949429,-87.5864499,15,"1/30/2015 17:42",NA,1012,1162,164.854726613966,34.6125,0.699430199430199,0.676877470355731
"385",420,"Ellis Ave & 55th St","Chicago",41.79430062,-87.60144977,19,"1/30/2015 17:43",NA,1786,1743,158.582250839866,30.4502779493514,0.709079678814083,0.892497200447928
"386",421,"MLK Jr Dr & 56th St (*)","Chicago",41.79342946,-87.61585326,12,"1/30/2015 17:43",NA,107,91,139.850778816199,33.9150943396226,0.742857142857143,0.981308411214953
"387",422,"DuSable Museum","Chicago",41.79156801,-87.60785218,15,"1/30/2015 17:43",NA,212,182,159.970283018868,39.3238636363637,0.647727272727273,0.820754716981132
"388",423,"University Ave & 57th St","Chicago",41.791478,-87.599861,27,"1/30/2015 17:44",NA,3131,3103,173.321020973065,30.2724945135333,0.734604105571848,0.862663685723411
"389",424,"Museum of Science and Industry","Chicago",41.79172821,-87.58394501,27,"1/30/2015 17:44",NA,1150,1201,146.684985507246,36.1484018264839,0.682648401826484,0.317391304347826
"390",425,"Harper Ave & 59th St","Chicago",41.78794281,-87.58831517,15,"1/30/2015 17:44",NA,738,645,162.685885275519,37.8107255520504,0.781299524564184,0.826558265582656
"391",426,"Ellis Ave & 60th St","Chicago",41.78509715,-87.60107276,19,"1/30/2015 17:45",NA,1803,1730,162.224265113699,25.785625,0.699186991869919,0.881863560732113
"392",427,"Cottage Grove Ave & 63rd St","Chicago",41.78059901,-87.60611239,19,"1/30/2015 17:45",NA,210,198,166.323571428571,31.0934065934066,0.813186813186813,0.838095238095238
"393",428,"Dorchester Ave & 63rd St","Chicago",41.78040565,-87.59141599,15,"1/30/2015 17:45",NA,161,129,161.20817805383,37.7272727272727,0.661157024793388,0.732919254658385
"394",429,"Cottage Grove Ave & 67th St","Chicago",41.77372095,-87.60563486,11,"1/30/2015 17:46",NA,56,66,178.430654761905,45.4791666666667,0.5,0.839285714285714
"395",430,"MLK Jr Dr & 63rd St","Chicago",41.78008064,-87.61594286,15,"1/30/2015 17:46",NA,20,23,210.679166666667,41.9333333333334,0.266666666666667,0.75
"396",431,"Eberhart Ave & 61st St","Chicago",41.78414169,-87.61330783,11,"1/30/2015 17:46",NA,51,59,149.154248366013,37.5952380952381,0.666666666666667,0.823529411764706
"397",432,"Clark St & Lunt Ave","Chicago",42.009074,-87.67419,19,"2/2/2015 11:32",NA,883,919,167.731577953945,41.8535108958838,0.787621359223301,0.921857304643262
"398",433,"Kedzie Ave & Harrison St","Chicago",41.87359967,-87.70487075,11,"2/10/2015 11:47",NA,25,29,150.524,27.8571428571429,0.666666666666667,0.84
"399",434,"Ogden Ave & Roosevelt Rd","Chicago",41.86650148,-87.68469707,19,"2/10/2015 11:47",NA,950,987,181.869842105263,27.3532608695652,0.703260869565217,0.947368421052632
"400",435,"Kedzie Ave & Roosevelt Rd","Chicago",41.86649278,-87.70649618,15,"2/10/2015 11:48",NA,58,53,128.852873563218,26.4509803921569,0.803921568627451,0.879310344827586
"401",436,"Fairfield Ave & Roosevelt Rd","Chicago",41.866624,-87.694521,15,"2/10/2015 11:48",NA,103,112,95.588996763754,40.75,0.697674418604651,0.844660194174757
"402",437,"Washtenaw Ave & Ogden Ave (*)","Chicago",41.861894,-87.693511,20,"2/10/2015 11:48",NA,252,275,143.594510582011,32.3861788617887,0.53469387755102,0.944444444444444
"403",438,"Central Park Ave & Ogden Ave","Chicago",41.85420431,-87.71540584,15,"2/10/2015 11:49",NA,85,87,148.266862745098,33.758064516129,0.754098360655738,0.729411764705882
"404",439,"Kedzie Ave & 21st St","Chicago",41.85353363,-87.70507303,11,"2/10/2015 11:49",NA,145,123,138.961609195402,31.8499999999999,0.766666666666667,0.779310344827586
"405",440,"Lawndale Ave & 23rd St","Chicago",41.84988195,-87.71700039,11,"2/10/2015 11:49",NA,62,72,94.3010752688172,39.639344262295,1,0.983870967741935
"406",441,"Kedzie Ave & 24th St","Chicago",41.84819094,-87.70541375,11,"2/10/2015 11:50",NA,72,71,140.062731481481,38.5593220338983,0.949152542372881,0.819444444444444
"407",442,"California Ave & 23rd Pl","Chicago",41.84910969,-87.69513981,15,"2/10/2015 11:50",NA,195,198,116.974957264957,47.9368421052632,0.810526315789474,0.958974358974359
"408",443,"Millard Ave & 26th St","Chicago",41.84456685,-87.71591031,11,"2/10/2015 11:50",NA,132,144,129.197348484848,41.212962962963,0.888888888888889,0.818181818181818
"409",444,"Albany Ave & 26th St","Chicago",41.84447501,-87.70201301,11,"2/10/2015 11:50",NA,64,91,145.376041666667,35.719298245614,0.87719298245614,0.875
"410",445,"California Ave & 26th St","Chicago",41.84404003,-87.69529592,11,"2/10/2015 11:51",NA,106,88,140.945440251572,41.98,0.8,0.933962264150943
"411",446,"Western Ave & 28th St","Chicago",41.84151771,-87.68513144,11,"2/10/2015 11:51",NA,36,39,179.942592592593,50.3030303030303,0.848484848484849,0.916666666666667
"412",447,"Glenwood Ave & Morse Ave","Chicago",42.00797192,-87.66550239,15,"2/10/2015 12:00",NA,1124,1133,151.973027876631,39.2557673019057,0.744959677419355,0.872775800711744
"413",448,"Warren Park East","Chicago",42.00454962,-87.68066615,15,"2/10/2015 14:02",NA,150,163,183.249,46.7657657657658,0.418181818181818,0.726666666666667
"414",449,"Clark St & Columbia Ave","Chicago",42.00445063,-87.6724024,15,"2/10/2015 14:02",NA,538,474,136.945693928129,37.0775347912524,0.803180914512923,0.923791821561338
"415",450,"Warren Park West","Chicago",42.001785,-87.688829,15,"2/10/2015 14:03",NA,172,216,99.1376937984496,35.4473684210527,0.725663716814159,0.633720930232558
"416",451,"Sheridan Rd & Loyola Ave","Chicago",42.00104378,-87.66119824,15,"2/10/2015 14:03",NA,1107,1175,159.3280788919,36.7687793427231,0.727716727716728,0.731707317073171
"417",452,"Western Ave & Granville Ave","Chicago",41.99416137,-87.68943828,15,"2/10/2015 14:03",NA,183,236,182.449180327869,37.5785714285714,0.719424460431655,0.726775956284153
"418",453,"Clark St & Schreiber Ave","Chicago",41.99925182,-87.67137734,15,"2/10/2015 14:03",NA,367,416,151.462261580381,37.8517350157729,0.678233438485804,0.863760217983651
"419",454,"Broadway & Granville Ave","Chicago",41.99477969,-87.66028453,15,"2/10/2015 14:04",NA,1171,1247,156.85681753487,36.1315165876777,0.73602853745541,0.685738684884714
"420",455,"Maplewood Ave & Peterson Ave","Chicago",41.99023603,-87.69336964,15,"2/10/2015 14:04",NA,103,115,173.662783171521,39.7123287671234,0.549295774647887,0.70873786407767
"421",456,"2112 W Peterson Ave","Chicago",41.991178,-87.683593,15,"2/10/2015 14:04",NA,160,171,197.629791666667,43.5615384615385,0.630769230769231,0.79375
"422",457,"Clark St & Elmdale Ave","Chicago",41.99089375,-87.6695834,19,"2/10/2015 14:04",NA,601,607,168.240820854132,39.0973282442749,0.818355640535373,0.855241264559068
"423",458,"Broadway & Thorndale Ave","Chicago",41.98974251,-87.66014062,19,"2/10/2015 14:05",NA,1142,1312,153.005575014594,36.5089887640449,0.753378378378378,0.760070052539405
"424",459,"Lakefront Trail & Bryn Mawr Ave","Chicago",41.9840367,-87.65231047,19,"2/10/2015 14:05",NA,3164,3274,116.331442267172,35.4561664190194,0.68833746898263,0.59039190897598
"425",460,"Clark St & Bryn Mawr Ave","Chicago",41.983593,-87.669154,15,"2/10/2015 14:05",NA,1195,1318,163.485788005579,38.4860234445446,0.672694394213382,0.889539748953975
"426",461,"Broadway & Ridge Ave","Chicago",41.98404461,-87.66027383,15,"2/10/2015 14:05",NA,1106,1202,157.23390596745,35.5439914163089,0.782561894510226,0.819168173598553
"427",462,"Ravenswood Ave & Balmoral Ave","Chicago",41.97977022,-87.67581473,15,"2/10/2015 14:06",NA,696,782,169.435249042146,36.0660522273427,0.66,0.887931034482759
"428",463,"Clark St & Berwyn Ave","Chicago",41.97799665,-87.6680471,19,"2/10/2015 14:06",NA,2033,2066,154.553557960321,35.942209631728,0.682801822323462,0.84751598622725
"429",464,"Damen Ave & Foster Ave","Chicago",41.9756148,-87.67945904,15,"2/10/2015 14:06",NA,1027,1111,155.373547549497,37.6150537634408,0.76989247311828,0.89873417721519
"430",465,"Marine Dr & Ainslie St","Chicago",41.9716,-87.650154,23,"2/10/2015 14:06",NA,1438,1490,126.33535002318,37.9287305122493,0.665921787709497,0.568150208623088
"431",466,"Ridge Blvd & Touhy Ave","Chicago",42.01213228,-87.68291264,15,"2/10/2015 14:11",NA,170,174,172.12068627451,38.8540145985401,0.532846715328467,0.8
"432",467,"Western Ave & Lunt Ave","Chicago",42.0085944,-87.69049224,15,"2/10/2015 14:11",NA,313,306,160.24350372737,38.0185873605949,0.676579925650558,0.856230031948882
"433",468,"Budlong Woods Library","Chicago",41.98366471,-87.69642256,15,"2/10/2015 14:12",NA,155,165,173.23311827957,41.7936507936508,0.756302521008403,0.780645161290323
"434",469,"St. Louis Ave & Balmoral Ave","Chicago",41.98039423,-87.71611496,15,"2/10/2015 14:36",NA,228,212,144.310233918129,34.6797752808989,0.747191011235955,0.758771929824561
"435",470,"Kedzie Ave & Foster Ave","Chicago",41.975672,-87.709261,15,"2/10/2015 14:36",NA,244,250,173.659221311475,36.8085106382978,0.875675675675676,0.725409836065574
"436",471,"Francisco Ave & Foster Ave","Chicago",41.97563273,-87.70141944,15,"2/10/2015 14:36",NA,392,413,153.601700680272,40.8184523809523,0.568862275449102,0.831632653061224
"437",472,"Lincoln Ave & Winona St","Chicago",41.9749113,-87.69250256,15,"2/10/2015 14:36",NA,385,371,158.5470995671,38.0118343195265,0.782738095238095,0.836363636363636
"438",474,"Christiana Ave & Lawrence Ave","Chicago",41.96835449,-87.71183067,15,"2/10/2015 14:37",NA,404,410,148.774133663366,38.7850746268657,0.797014925373134,0.819306930693069
"439",475,"Washtenaw Ave & Lawrence Ave","Chicago",41.968987,-87.696027,15,"2/10/2015 14:38",NA,561,565,149.049762329174,36.155818540434,0.731755424063116,0.90017825311943
"440",476,"Kedzie Ave & Leland Ave","Chicago",41.96668636,-87.70805198,15,"2/10/2015 14:38",NA,389,397,173.417095115681,36.6997167138811,0.781869688385269,0.863753213367609
"441",477,"Manor Ave & Leland Ave","Chicago",41.96631753,-87.70108268,11,"2/10/2015 14:38",NA,263,259,166.284854245881,38.4229074889868,0.712389380530973,0.855513307984791
"442",478,"Rockwell St & Eastwood Ave","Chicago",41.96590014,-87.69363849,15,"2/10/2015 14:38",NA,641,724,143.46905876235,41.3581314878893,0.707612456747405,0.893915756630265
"443",479,"Drake Ave & Montrose Ave","Chicago",41.96115408,-87.71656907,15,"2/10/2015 14:38",NA,417,448,154.925939248601,38.7728459530026,0.736292428198433,0.90167865707434
"444",480,"Albany Ave & Montrose Ave","Chicago",41.961041,-87.705866,15,"2/10/2015 14:39",NA,215,299,165.097131782946,37.9608938547485,0.743016759776536,0.786046511627907
"445",481,"California Ave & Montrose Ave","Chicago",41.961068,-87.695439,15,"2/10/2015 14:39",NA,399,490,154.006015037594,38.2019230769231,0.657051282051282,0.774436090225564
"446",482,"Campbell Ave & Montrose Ave","Chicago",41.96152593,-87.69116504,15,"2/10/2015 14:39",NA,685,684,161.33197080292,37.4281298299845,0.782071097372488,0.943065693430657
"447",483,"Avondale Ave & Irving Park Rd","Chicago",41.953393,-87.732002,19,"2/10/2015 14:39",NA,429,411,157.727972027972,33.5474254742549,0.75609756097561,0.836829836829837
"448",484,"Monticello Ave & Irving Park Rd","Chicago",41.95400484,-87.71912818,15,"2/10/2015 14:39",NA,334,358,129.186477045908,35.3908450704225,0.6113074204947,0.820359281437126
"449",485,"Sawyer Ave & Irving Park Rd","Chicago",41.95358618,-87.7093108,15,"2/10/2015 14:40",NA,312,342,131.822596153846,37.43359375,0.7265625,0.807692307692308
"450",486,"Oakley Ave & Irving Park Rd","Chicago",41.95434085,-87.68607962,15,"2/10/2015 14:40",NA,555,578,153.926036036036,37.2708333333333,0.73125,0.846846846846847
"451",487,"California Ave & Byron St","Chicago",41.95216219,-87.69805111,19,"2/10/2015 14:40",NA,420,462,161.860992063492,37.9880597014926,0.859281437125748,0.766666666666667
"452",488,"Pulaski Rd & Eddy St","Chicago",41.94563644,-87.72773681,11,"2/10/2015 14:40",NA,128,119,144.720442708333,34.7586206896551,0.848837209302326,0.640625
"453",489,"Drake Ave & Addison St","Chicago",41.947326,-87.717582,15,"2/10/2015 14:41",NA,436,433,152.880237003058,38.0946601941748,0.815533980582524,0.924311926605505
"454",490,"Troy St & Elston Ave","Chicago",41.94524357,-87.7066499,15,"2/10/2015 14:41",NA,552,601,138.700543478261,36.0283400809717,0.730769230769231,0.88768115942029
"455",491,"Talman Ave & Addison St","Chicago",41.94663583,-87.69461476,15,"2/10/2015 14:41",NA,623,671,163.290850722311,33.0385356454722,0.807321772639692,0.828250401284109
"456",492,"Leavitt St & Addison St","Chicago",41.946655,-87.683359,15,"2/10/2015 14:41",NA,551,562,149.731367211131,35.8476394849786,0.699570815450644,0.833030852994555
"457",493,"Oakley Ave & Roscoe St","Chicago",41.942916,-87.685801,15,"2/10/2015 14:42",NA,851,861,166.187250293772,42.6345177664975,0.738578680203046,0.916568742655699
"458",494,"Kedzie Ave & Bryn Mawr Ave","Chicago",41.98239708,-87.70892252,15,"2/10/2015 14:42",NA,119,151,155.233613445378,39.5319148936171,0.670212765957447,0.756302521008403
"459",495,"Keystone Ave & Montrose Ave","Chicago",41.96110802,-87.7289701,15,"2/10/2015 14:42",NA,230,239,152.241304347826,40.7241379310344,0.78735632183908,0.734782608695652
"460",496,"Avers Ave & Belmont Ave","Chicago",41.939408,-87.723574,11,"2/10/2015 14:47",NA,346,379,143.23795761079,32.8035087719297,0.750877192982456,0.815028901734104
"461",497,"Kimball Ave & Belmont Ave","Chicago",41.939398,-87.711561,23,"2/10/2015 14:47",NA,472,480,137.83290960452,34,0.739454094292804,0.841101694915254
"462",498,"California Ave & Fletcher St","Chicago",41.93842879,-87.69800776,19,"2/10/2015 14:47",NA,522,628,155.7437100894,33.8793503480279,0.651162790697674,0.789272030651341
"463",499,"Kosciuszko Park","Chicago",41.93058537,-87.72377736,15,"2/10/2015 14:48",NA,560,588,150.064523809524,33.3806451612904,0.750537634408602,0.821428571428571
"464",500,"Central Park Ave & Elbridge Ave","Chicago",41.93533728,-87.71688929,15,"2/10/2015 14:48",NA,371,357,125.760871518419,33.816199376947,0.716510903426791,0.846361185983827
"465",501,"Richmond St & Diversey Ave","Chicago",41.93190197,-87.70119513,15,"2/10/2015 14:48",NA,681,712,124.811796377876,32.129240710824,0.651050080775444,0.888399412628488
"466",502,"California Ave & Altgeld St","Chicago",41.92669,-87.697668,15,"2/10/2015 14:48",NA,824,920,152.492677993528,32.5896739130435,0.85054347826087,0.877427184466019
"467",503,"Drake Ave & Fullerton Ave","Chicago",41.92439882,-87.71544104,15,"2/10/2015 14:49",NA,601,701,132.222102052135,33.8079331941544,0.668058455114823,0.762063227953411
"468",504,"Campbell Ave & Fullerton Ave","Chicago",41.92463247,-87.68930701,15,"2/10/2015 14:49",NA,860,867,141.124903100775,34.3677419354838,0.723156532988357,0.88953488372093
"469",505,"Winchester Ave & Elston Ave","Chicago",41.92409085,-87.67646007,15,"2/10/2015 14:49",NA,863,914,167.951313248358,33.2245161290323,0.758085381630013,0.887601390498262
"470",506,"Spaulding Ave & Armitage Ave","Chicago",41.91718375,-87.71035665,15,"2/10/2015 14:50",NA,1050,1129,147.515285714286,35.0492957746478,0.772673733804476,0.787619047619048
"471",507,"Humboldt Blvd & Armitage Ave","Chicago",41.91751339,-87.70180896,19,"2/10/2015 14:50",NA,1262,1320,142.828711040676,34.0237603305786,0.608471074380165,0.744849445324881
"472",508,"Central Park Ave & North Ave","Chicago",41.90965688,-87.71663195,15,"2/10/2015 14:50",NA,420,433,134.510833333333,33.7800687285223,0.77319587628866,0.673809523809524
"473",509,"Troy St & North Ave","Chicago",41.9097693,-87.70528049,15,"2/10/2015 14:50",NA,425,462,143.87,34.4440559440559,0.604895104895105,0.632941176470588
"474",510,"Spaulding Ave & Division St","Chicago",41.90270659,-87.70921957,15,"2/10/2015 14:51",NA,321,271,175.046209761163,33.2397003745318,0.416988416988417,0.81619937694704
"475",511,"Albany Ave & Bloomingdale Ave","Chicago",41.91402671,-87.70512646,15,"2/10/2015 14:51",NA,1277,1227,142.10315844427,35.0183783783784,0.634594594594595,0.703210649960846
"476",514,"Ridge Blvd & Howard St","Chicago",42.019276,-87.68452,15,"5/12/2016 17:35",NA,172,162,141.377228682171,51.0263157894738,0.539473684210526,0.883720930232558
"477",515,"Paulina St & Howard St","Chicago",42.019159,-87.673573,23,"5/12/2016 17:36",NA,584,674,154.481563926941,37.6297029702971,0.81547619047619,0.842465753424658
"478",517,"Clark St & Jarvis Ave","Chicago",42.015963,-87.675005,15,"5/12/2016 17:38",NA,244,241,129.910724043716,41.3875598086124,0.851674641148325,0.848360655737705
"479",518,"Conservatory Dr & Lake St","Chicago",41.885502,-87.716866,15,"5/24/2016 15:32",NA,147,155,105.121882086168,37.186274509804,0.57843137254902,0.605442176870748
"480",519,"Wolcott Ave & Fargo Ave","Chicago",42.016977,-87.677725,11,"5/24/2016 15:40",NA,48,72,164.618402777778,35.8823529411766,0.823529411764706,0.708333333333333
"481",520,"Greenview Ave & Jarvis Ave","Chicago",42.015962,-87.66857,23,"5/24/2016 15:41",NA,576,564,140.350115740741,38.7255639097743,0.625708884688091,0.909722222222222
"482",522,"Bosworth Ave & Howard St","Chicago",42.019537,-87.669563,15,"5/24/2016 15:43",NA,217,200,152.130030721966,39.2094240837696,0.596858638743455,0.861751152073733
"483",523,"Eastlake Ter & Rogers Ave","Chicago",42.021019,-87.665086,15,"5/24/2016 15:44",NA,617,512,166.856834143706,42.2667946257197,0.53742802303263,0.834683954619125
"484",524,"Austin Blvd & Chicago Ave","Chicago",41.894887,-87.774704,11,"5/24/2016 15:45",NA,42,46,168.199206349206,49.7058823529412,0.882352941176471,0.404761904761905
"485",525,"Glenwood Ave & Touhy Ave","Chicago",42.012701,-87.666058,15,"5/24/2016 15:47",NA,270,261,142.584012345679,38.079831932773,0.679324894514768,0.874074074074074
"486",526,"Oakley Ave & Touhy Ave","Chicago",42.012342,-87.688243,15,"5/24/2016 15:48",NA,145,105,199.077701149425,37.0588235294117,0.870588235294118,0.572413793103448
"487",527,"Western Ave & Howard St","Chicago",42.018901,-87.690048,19,"5/24/2016 15:49",NA,174,171,174.179118773946,42.4133333333334,0.766666666666667,0.827586206896552
"488",528,"Pulaski Rd & Lake St","Chicago",41.885409,-87.726491,15,"5/24/2016 15:50",NA,41,25,128.802845528455,36.5483870967741,0.67741935483871,0.707317073170732
"489",529,"Cicero Ave & Lake St","Chicago",41.886841,-87.745261,15,"5/27/2016 8:35",NA,6,12,176.688888888889,52.5,1,0.5
"490",530,"Laramie Ave & Kinzie St","Chicago",41.887832,-87.755527,15,"5/27/2016 8:37",NA,14,20,191.182142857143,34.25,0.625,0.428571428571429
"491",531,"Central Ave & Lake St","Chicago",41.887664,-87.765469,15,"5/27/2016 8:38",NA,43,43,148.641860465116,40.6842105263158,0.236842105263158,0.813953488372093
"492",532,"Austin Blvd & Lake St","Chicago",41.887919,-87.774446,15,"5/27/2016 8:38",NA,107,90,106.652336448598,42.284090909091,0.863636363636364,0.785046728971963
"493",533,"Central Park Blvd & 5th Ave","Chicago",41.875679,-87.71547,15,"5/27/2016 8:40",NA,22,20,80.3121212121212,35.7619047619048,0.523809523809524,0.772727272727273
"494",534,"Pulaski Rd & Madison St","Chicago",41.880827,-87.726279,15,"5/27/2016 8:41",NA,15,15,148.533333333333,43.9285714285713,0.714285714285714,0.933333333333333
"495",535,"Pulaski Rd & Congress Pkwy","Chicago",41.874325,-87.725704,15,"5/27/2016 8:41",NA,17,23,163.650980392157,30.909090909091,0.454545454545455,0.294117647058824
"496",536,"Kostner Ave & Lake St","Chicago",41.885928,-87.73541,15,"5/27/2016 8:42",NA,21,14,56.7261904761905,37.0714285714287,0.785714285714286,0.571428571428571
"497",537,"Kenton Ave & Madison St","Chicago",41.880708,-87.741018,15,"5/27/2016 8:43",NA,4,5,108.783333333333,32.75,1,0.75
"498",538,"Cicero Ave & Flournoy St","Chicago",41.872131,-87.746619,15,"5/27/2016 8:43",NA,4,7,135.958333333333,34,0.666666666666667,0.5
"499",539,"Cicero Ave & Quincy St","Chicago",41.877613,-87.745405,15,"5/27/2016 8:44",NA,15,9,103.155555555556,32,0.166666666666667,0.8
"500",540,"Laramie Ave & Madison St","Chicago",41.880207,-87.755337,15,"5/27/2016 8:46",NA,4,11,196.329166666667,50.75,0.75,1
"501",541,"Central Ave & Harrison St","Chicago",41.872993,-87.764499,15,"5/27/2016 8:49",NA,24,21,147.572916666667,37.8571428571429,0.714285714285714,0.291666666666667
"502",542,"Central Ave & Madison St","Chicago",41.880121,-87.763238,15,"5/27/2016 9:03",NA,6,3,113.763888888889,26,1,0.5
"503",543,"Laramie Ave & Gladys Ave","Chicago",41.875806,-87.755285,15,"5/27/2016 9:04",NA,9,9,79.1203703703704,49.5,0.875,0.888888888888889
"504",544,"Austin Blvd & Madison St","Chicago",41.880281,-87.774453,15,"5/27/2016 9:05",NA,42,29,151.459920634921,37.7931034482758,0.821428571428571,0.619047619047619
"505",545,"Kostner Ave & Adams St","Chicago",41.877917,-87.735737,15,"5/27/2016 9:05",NA,18,15,129.369444444444,40,1,0.777777777777778
"506",546,"Damen Ave & Pershing Rd","Chicago",41.823192,-87.676597,11,"5/27/2016 9:13",NA,55,64,122.49696969697,34.7586206896551,0.689655172413793,0.436363636363636
"507",547,"Ashland Ave & Pershing Rd","Chicago",41.823465,-87.665577,11,"5/27/2016 9:24",NA,91,108,110.587179487179,37.8720930232557,0.406976744186047,0.945054945054945
"508",548,"Morgan St & Pershing Rd","Chicago",41.823613,-87.650931,11,"5/27/2016 9:25",NA,17,14,103.179411764706,36.5,0.75,0.411764705882353
"509",549,"Marshfield Ave & 44th St","Chicago",41.813996,-87.666589,11,"5/27/2016 9:25",NA,20,12,99.6941666666667,36.125,0.625,0.8
"510",550,"Central Ave & Chicago Ave","Chicago",41.894958,-87.764902,11,"5/27/2016 9:25",NA,16,16,148.78125,41.2,0.4,0.9375
"511",551,"Hoyne Ave & 47th St","Chicago",41.808227,-87.67718,11,"5/27/2016 9:29",NA,41,43,145.817886178862,44.8918918918919,0.891891891891892,0.902439024390244
"512",552,"Ashland Ave & McDowell Ave","Chicago",41.80887,-87.66454,11,"5/27/2016 9:30",NA,84,76,105.227777777778,39.3544303797469,0.860759493670886,0.916666666666667
"513",553,"Elizabeth St & 47th St","Chicago",41.80839,-87.656526,11,"5/27/2016 10:03",NA,35,35,157.078095238095,37.8387096774193,0.612903225806452,0.885714285714286
"514",554,"Damen Ave & 51st St","Chicago",41.800908,-87.674684,11,"5/27/2016 10:15",NA,33,43,99.5343434343434,31.6666666666667,0.666666666666667,0.181818181818182
"515",555,"Ashland Ave & 50th St","Chicago",41.803023,-87.664699,11,"5/27/2016 10:16",NA,37,41,129.811711711712,40.741935483871,0.354838709677419,0.837837837837838
"516",556,"Throop St & 52nd St","Chicago",41.799659,-87.657195,11,"5/27/2016 10:48",NA,5,4,175.31,30.25,0.25,0.8
"517",557,"Seeley Ave & Garfield Blvd","Chicago",41.794087,-87.675478,11,"5/27/2016 10:48",NA,9,7,109.383333333333,28.7777777777778,0.888888888888889,1
"518",558,"Ashland Ave & Garfield Blvd","Chicago",41.792822,-87.664429,11,"5/27/2016 10:49",NA,10,12,156.991666666667,34.8,1,0.4
"519",559,"Racine Ave & Garfield Blvd","Chicago",41.794228,-87.655073,11,"5/27/2016 10:49",NA,16,21,166.554166666667,31.0999999999999,0.6,0.5625
"520",560,"Marshfield Ave & 59th St","Chicago",41.786833,-87.666215,11,"5/27/2016 10:50",NA,10,6,148.871666666667,26.8,0.3,1
"521",561,"Damen Ave & 59th St","Chicago",41.78602,-87.674167,11,"5/27/2016 10:50",NA,15,20,99.1488888888889,28.9000000000001,0.2,0.6
"522",562,"Racine Ave & 61st St","Chicago",41.783189,-87.654372,11,"5/27/2016 10:51",NA,2,2,159.641666666667,54,1,0.5
"523",563,"Ashland Ave & 63rd St","Chicago",41.779374,-87.664843,15,"5/27/2016 10:51",NA,38,33,179.20350877193,30.7575757575758,0.424242424242424,0.842105263157895
"524",564,"Racine Ave & 65th St","Chicago",41.775393,-87.654308,11,"5/27/2016 10:52",NA,9,11,137.298148148148,34.4000000000001,0.6,0.555555555555556
"525",565,"Ashland Ave & 66th St","Chicago",41.774074,-87.663815,11,"5/27/2016 10:52",NA,2,3,197.616666666667,NA,NA,0
"526",566,"Ashland Ave & 69th St","Chicago",41.768726,-87.664069,11,"5/27/2016 10:53",NA,21,24,142.62619047619,38.4285714285713,0.80952380952381,0.952380952380952
"527",567,"May St & 69th St","Chicago",41.768938,-87.652934,11,"5/27/2016 10:53",NA,30,35,151.397777777778,32.0999999999999,0.0333333333333333,0.966666666666667
"528",568,"Normal Ave & 72nd St","Chicago",41.763462,-87.637297,11,"5/27/2016 10:54",NA,28,26,145.988095238095,28.3333333333333,0.277777777777778,0.642857142857143
"529",569,"Woodlawn Ave & 75th St","Chicago",41.75916,-87.595751,15,"5/27/2016 10:54",NA,13,17,230.747435897436,42.75,0.833333333333333,0.923076923076923
"530",570,"Evans Ave & 75th St","Chicago",41.758308,-87.606685,11,"5/27/2016 10:55",NA,105,115,179.133650793651,49.5757575757575,0.888888888888889,0.942857142857143
"531",571,"Vernon Ave & 75th St","Chicago",41.758361,-87.614138,11,"5/27/2016 10:55",NA,19,27,123.268421052632,28.8571428571429,0.428571428571429,0.368421052631579
"532",572,"State St & 76th St","Chicago",41.756971,-87.624621,11,"5/27/2016 10:56",NA,38,39,186.411403508772,25.4285714285713,0.178571428571429,0.710526315789474
"533",573,"State St & 79th St","Chicago",41.750794,-87.624424,15,"5/27/2016 10:56",NA,106,85,185.373899371069,34.2209302325582,0.848837209302326,0.783018867924528
"534",574,"Eberhart (Vernon) Ave & 79th St","Chicago",41.751345,-87.612568,11,"5/27/2016 10:57",NA,22,39,116.630303030303,33.090909090909,0.727272727272727,0.5
"535",575,"Cottage Grove Ave & 78th St","Chicago",41.753174,-87.605026,11,"5/27/2016 10:57",NA,37,42,141.009009009009,48.7142857142858,0.892857142857143,0.72972972972973
"536",576,"Greenwood Ave & 79th St","Chicago",41.751294,-87.597552,15,"5/27/2016 11:29",NA,13,16,150.138461538462,34.5454545454545,0.818181818181818,0.769230769230769
"537",577,"Stony Island Ave & South Chicago Ave","Chicago",41.751173,-87.585337,11,"5/27/2016 11:31",NA,28,27,162.6,30.1923076923076,0.692307692307692,0.928571428571429
"538",578,"Bennett Ave & 79th St","Chicago",41.751785,-87.578496,11,"5/27/2016 11:31",NA,40,18,118.894583333333,26.84375,0.78125,0.8
"539",579,"Phillips Ave & 79th St","Chicago",41.75182,-87.565211,11,"5/27/2016 11:32",NA,31,31,200.869892473118,31.6190476190477,0.80952380952381,0.67741935483871
"540",580,"Exchange Ave & 79th St","Chicago",41.751731,-87.552812,15,"5/27/2016 11:32",NA,145,136,163.872068965517,34.6569343065694,0.647058823529412,0.937931034482759
"541",581,"Commercial Ave & 83rd St","Chicago",41.744607,-87.551201,0,"5/27/2016 11:33",NA,1,3,0.3,33,1,1
"542",582,"Phillips Ave & 83rd St","Chicago",41.744688,-87.566066,0,"5/27/2016 11:34",NA,2,7,110.833333333333,NA,NA,0
"543",583,"Stony Island Ave & 82nd St","Chicago",41.746559,-87.586005,11,"5/27/2016 11:34",NA,8,15,142.995833333333,37.75,1,0.5
"544",584,"Ellis Ave & 83rd St","Chicago",41.744123,-87.599034,15,"5/27/2016 11:35",NA,17,19,163.591176470588,35.8888888888889,0.666666666666667,0.294117647058824
"545",585,"Cottage Grove Ave & 83rd St","Chicago",41.744053,-87.604786,11,"5/27/2016 11:36",NA,53,41,149.550628930818,41.5588235294117,0.882352941176471,0.622641509433962
"546",586,"MLK Jr Dr & 83rd St","Chicago",41.743116,-87.6148,11,"5/27/2016 11:36",NA,46,52,194.160869565217,34.6521739130435,1,0.978260869565217
"547",587,"Wabash Ave & 83rd St","Chicago",41.743316,-87.622849,11,"5/27/2016 11:37",NA,22,31,145.491666666667,35.2222222222222,0.944444444444444,0.818181818181818
"548",588,"South Chicago Ave & 83rd St","Chicago",41.743921,-87.575225,11,"5/27/2016 11:38",NA,9,8,83.1388888888889,32.5,0.5,0.555555555555556
"549",589,"Milwaukee Ave & Cuyler Ave","Chicago",41.954468,-87.749594,15,"5/27/2016 11:39",NA,83,132,145.335140562249,34.3199999999999,0.78,0.590361445783133
"550",590,"Kilbourn Ave & Irving Park Rd","Chicago",41.953733,-87.740569,15,"5/27/2016 11:39",NA,161,152,117.866770186335,33.4820143884892,0.510791366906475,0.84472049689441
"551",591,"Kilbourn Ave & Milwaukee Ave","Chicago",41.948818,-87.74002,23,"5/27/2016 11:40",NA,179,155,166.883705772812,35.2121212121212,0.856060606060606,0.715083798882682
"552",592,"Knox Ave & Montrose Ave","Chicago",41.960631,-87.745359,15,"5/27/2016 11:40",NA,193,141,138.93920552677,35.2452830188679,0.792452830188679,0.787564766839378
"553",593,"Halsted St & 59th St","Chicago",41.787539,-87.644874,11,"5/27/2016 11:41",NA,8,8,151.75,39.125,0.375,1
"554",594,"Western Blvd & 48th Pl","Chicago",41.805661,-87.683392,15,"5/27/2016 11:42",NA,31,22,148.966129032258,31.2857142857142,0.904761904761905,0.67741935483871
"555",595,"Wabash Ave & 87th St","Chicago",41.736646,-87.622634,15,"5/27/2016 11:42",NA,19,28,152.479824561404,37.5294117647059,1,0.842105263157895
"556",596,"Benson Ave & Church St","Evanston",42.048214,-87.683485,15,"6/14/2016 11:00",NA,1494,1503,167.537594823739,37.6024590163934,0.777049180327869,0.784471218206158
"557",597,"Chicago Ave & Washington St","Evanston",42.032562,-87.679101,15,"6/14/2016 11:01",NA,807,779,184.722201569599,42.0374251497005,0.752994011976048,0.806691449814126
"558",598,"Elmwood Ave & Austin St","Evanston",42.025784,-87.684107,15,"6/14/2016 11:02",NA,208,268,157.266105769231,40.1147540983607,0.775956284153005,0.860576923076923
"559",599,"Valli Produce - Evanston Plaza","Evanston",42.039742,-87.699413,15,"6/14/2016 11:03",NA,126,196,175.043386243386,37.7127659574469,0.787234042553192,0.706349206349206
"560",600,"Dodge Ave & Church St","Evanston",42.048308,-87.698224,15,"6/14/2016 11:03",NA,231,205,168.670490620491,37.3285024154588,0.826086956521739,0.896103896103896
"561",601,"Central St Metra","Evanston",42.063598,-87.69873,15,"6/14/2016 11:04",NA,340,443,155.988774509804,47.8732394366198,0.833333333333333,0.820588235294118
"562",602,"Central St & Girard Ave","Evanston",42.064313,-87.686152,15,"6/14/2016 11:04",NA,364,321,169.593086080586,44.1277955271566,0.798722044728435,0.826923076923077
"563",603,"Chicago Ave & Sheridan Rd","Evanston",42.050491,-87.677821,15,"6/14/2016 11:05",NA,836,760,139.837599681021,29.1875,0.822335025380711,0.665071770334928
"564",604,"Sheridan Rd & Noyes St (NU)","Evanston",42.058239,-87.677432,15,"6/14/2016 11:05",NA,870,811,154.034482758621,33.8826025459689,0.796322489391796,0.8
"565",605,"University Library (NU)","Evanston",42.052939,-87.673447,15,"6/14/2016 11:06",NA,1006,1039,143.578661365142,32.7956469165658,0.837968561064087,0.809145129224652
"579",619,"Keystone Ave & Fullerton Ave","Chicago",41.924361,-87.727752,15,"7/7/2016 16:46",NA,200,191,127.023583333333,34.4013157894738,0.532894736842105,0.755
"580",620,"Orleans St & Chestnut St (NEXT Apts)","Chicago",41.898203,-87.637536,15,"7/7/2016 16:46",NA,2211,2045,183.300919644203,33.691089108911,0.842574257425743,0.893713251922207
"581",622,"California Ave & Cortez St","Chicago",41.900363,-87.696704,15,"4/27/2017 9:17",NA,1062,1079,136.588010043942,34.7537634408602,0.772727272727273,0.855932203389831
"582",623,"Michigan Ave & 8th St","Chicago",41.872773,-87.623981,31,"6/13/2017 15:23",NA,4244,3924,151.448719761232,36.812101910828,0.713677488025546,0.386899151743638
"583",624,"Dearborn St & Van Buren St (*)","Chicago",41.876268,-87.629155,16,"7/26/2017 21:25",NA,1421,1346,174.375908984283,37.6282919488337,0.777526395173454,0.882477128782547
"584",625,"Chicago Ave & Dempster St","Evanston",42.041691,-87.680687,15,"8/11/2017 16:53",NA,518,497,165.467792792793,35.6630434782608,0.719565217391304,0.833976833976834
"585",626,"Delano Ct & Roosevelt Rd","Chicago",41.867491,-87.63219,19,"12/21/2017 22:06",NA,1962,1814,174.071330275229,35.0667870036102,0.751204819277108,0.830275229357798
